,Nombre del establecimiento,Departamento,Provincia,Distrito,Dirección,direccion_ubicacion,lat,lon
30,VERONESI SOCIEDAD ANONIMA CERRADA,LIMA,HUAURA,HUACHO,AVENIDA TUPAC AMARU 516 DISTRITO HUACHO PROVINCIA HUAURA DEPARTAMENTO LIMA ,"Avenida Tupac Amaru 516 Distrito Huacho Provincia Huaura Departamento Lima, Huacho, Huaura, Perú",-11.1075134,-77.597561
275,HOSPITAL MARIA AUXILIADORA,LIMA,LIMA,SAN JUAN DE MIRAFLORES,CALLE MIGUEL IGLESIAS N°968,"Calle Miguel Iglesias N°968, San Juan De Miraflores, Lima, Perú",-12.1611853,-76.958399
280,CENTRO DE CIRUGIA PLASTICA S.A.C.,LIMA,LIMA,SAN ISIDRO,CALLE 32 N° 366 OFICINA 101 Y 202,"Calle 32 N° 366 Oficina 101 Y 202, San Isidro, Lima, Perú",-12.1076006,-77.01128059999999
392,CENTRO DE INVESTIGACION Y ATENCION CARDIOVASCULAR SOCIEDAD ANONIMA CERRADA,LIMA,LIMA,SAN ISIDRO,"AVENIDA AV. SALAVERRY N° 2665  2669, URB. CONTRY CLUB AV. SALAVERRY N° 2665  2669, URB. CONTRY CLUB SAN ISIDRO LIMA LIMA ","Avenida Avenida Salaverry N° 2665  2669, Urb Contry Club Avenida Salaverry N° 2665  2669, Urb Contry Club San Isidro Lima Lima, San Isidro, Lima, Perú",,
511,LA ESPERANZA DEL PERU S.A.,LIMA,LIMA,SAN BORJA,AVENIDA AV. GUARDIA CIVIL N° 337 AV. GUARDIA CIVIL N° 337 SAN BORJA LIMA LIMA ,"Avenida Avenida Guardia Civil N° 337 Avenida Guardia Civil N° 337 San Borja Lima Lima, San Borja, Lima, Perú",-12.0976533,-77.0118129
713,NACIONAL SERGIO E. BERNALES,LIMA,LIMA,COMAS,AV. TUPAC AMARU KM. 14.5,"Avenida Tupac Amaru Km 145, Comas, Lima, Perú",-11.9417251,-77.0502012
726,CLINICA CAMPOS E.I.R.LTDA.,LIMA,CAÑETE,SAN VICENTE DE CAÑETE,AVENIDA AV. MARISCAL OSCAR R. BENAVIDES 554 SAN VICENTE DE CAÑETE DISTRITO SAN VICENTE DE CAÑETE PROVINCIA CAÑETE DEPARTAMENTO LIMA ,"Avenida Avenida Mariscal Oscar R Benavides 554 San Vicente De Cañete Distrito San Vicente De Cañete Provincia Cañete Departamento Lima, San Vicente De Cañete, Cañete, Perú",-13.0725669,-76.3677065
727,CLINICA DE LA FAMILIA,LIMA,LIMA,LA MOLINA,LAS CAOBAS 152 EL REMANSO,"Las Caobas 152 El Remanso, La Molina, Lima, Perú",-12.0909727,-76.9494977
753,CLINICA NUEVO SAN JUAN SAC,LIMA,LIMA,SAN JUAN DE LURIGANCHO,"AV. PROCERES DE LA INDEPENDENCIA 1764, MZ. G, OOTES 10-11-20-21 - URB. LAS FLORES","Avenida Proceres De La Independencia 1764, Manzana G, Ootes 10, 11, 20, 21, Urb Las Flores, San Juan De Lurigancho, Lima, Perú",-12.0040694,-77.0066895
791,CLINICA FLEMING,LIMA,LIMA,SAN BORJA,JIRÓN JR ALEXANDER FLEMING 103 URB SAN BORJA SUR DISTRITO SAN BORJA PROVINCIA LIMA DEPARTAMENTO LIMA ,"Jirón Jiron Alexander Fleming 103 Urb San Borja Sur Distrito San Borja Provincia Lima Departamento Lima, San Borja, Lima, Perú",-12.1017841,-77.00670029999999
875,EL PORVENIR,LIMA,LIMA,LA VICTORIA,JR. SEBASTIÁN BARRANCA 977,"Jiron Sebastián Barranca 977, La Victoria, Lima, Perú",-12.0674889,-77.0211259
940,CLINICA SANTA MARIA DE LA VIDA,LIMA,LIMA,SAN JUAN DE MIRAFLORES,"CALLE CALLE 5 S/N, AAHH REP. DEMOCRATICA ALEMANA NÚMERO S/N DISTRITO SAN JUAN DE MIRAFLORES PROVINCIA LIMA DEPARTAMENTO LIMA ","Calle Calle 5 S/N, Aahh Rep Democratica Alemana Número S/N Distrito San Juan De Miraflores Provincia Lima Departamento Lima, San Juan De Miraflores, Lima, Perú",-12.1411414,-76.9558129
1023,CENTRO MATERNO INFANTIL JUAN PABLO II,LIMA,LIMA,VILLA EL SALVADOR,"AV. MARIANO PASTOR  SEVILLA S/N ,SECTOR 6,GRUPO 6","Avenida Mariano Pastor Sevilla S/N, Sector 6, Grupo 6, Villa El Salvador, Lima, Perú",-12.2208463,-76.9437828
1058,HOSPITAL AURELIO DIAZ UFANO Y PERAL,LIMA,LIMA,SAN JUAN DE LURIGANCHO,CALLE MAJES S/N G-11 - URB. LOS PINOS,"Calle Majes S/N G, 11, Urb Los Pinos, San Juan De Lurigancho, Lima, Perú",-11.9739793,-77.0006666
1061,HOSPITAL MUNICIPAL LOS OLIVOS,LIMA,LIMA,LOS OLIVOS,AVENIDA AV NARANJAL 318 LOS OLIVOS DISTRITO LOS OLIVOS PROVINCIA LIMA DEPARTAMENTO LIMA ,"Avenida Avenida Naranjal 318 Los Olivos Distrito Los Olivos Provincia Lima Departamento Lima, Los Olivos, Lima, Perú",-11.9766713,-77.06335109999999
1064,CLINICA ESTETICA MONTERRICO,LIMA,LIMA,SANTIAGO DE SURCO,AV.JAVIER PRADO ESTE 3877.SURCO,"AvenidaJavier Prado Este 3877Surco, Santiago De Surco, Lima, Perú",-12.08377,-76.9734813
1222,ONCOLOGIA S.A.C.,LIMA,LIMA,SAN BORJA,JR. EDUARDO ORDOÑEZ Nº 215 - 219,"Jiron Eduardo Ordoñez Nº 215, 219, San Borja, Lima, Perú",-12.1056534,-77.00743849999999
1235,CUYUBAMBA REINOSO JORGE LUIS,LIMA,LIMA,LINCE,"AV AREQUIPA 2685 OF 301, 3ER PISO","Avenida Arequipa 2685 Of 301, 3Er Piso, Lince, Lima, Perú",-12.0904172,-77.0333557
1365,CIRUGIA LAPAROSCOPICA E.I.R.LTDA,LIMA,LIMA,LINCE,AVENIDA AREQUIPA  NÚMERO 2685 PISO 3 INTERIOR 301 DISTRITO LINCE PROVINCIA LIMA DEPARTAMENTO LIMA ,"Avenida Arequipa Número 2685 Piso 3 Interior 301 Distrito Lince Provincia Lima Departamento Lima, Lince, Lima, Perú",-12.0903698,-77.0333003
1374,CENTRO DE SALUD MILITAR RIMAC,LIMA,LIMA,RIMAC,AVENIDA AV. ELESPURU S/N FUERTE RAFAEL HOYOS RUBIO - RIMAC NÚMERO S/N DISTRITO RIMAC PROVINCIA LIMA DEPARTAMENTO LIMA ,"Avenida Avenida Elespuru S/N Fuerte Rafael Hoyos Rubio, Rimac Número S/N Distrito Rimac Provincia Lima Departamento Lima, Rimac, Lima, Perú",-12.0238444,-77.0366114
1377,INSTITUTO NACIONAL MATERNO PERINATAL,LIMA,LIMA,LIMA,JIRÓN JR. ANTONIO MIROQUESADA Nº 941 JR. ANTONIO MIROQUESADA Nº 941 LIMA LIMA LIMA ,"Jirón Jiron Antonio Miroquesada Nº 941 Jiron Antonio Miroquesada Nº 941 Lima Lima Lima, Lima, Perú",-12.0568513,-77.13648169999999
1380,CLINICA ONCOSALUD,LIMA,LIMA,SAN BORJA,"AVENIDA AV. GUARDIA CIVIL N°227-229 ,URB. CORPAC DISTRITO SAN BORJA PROVINCIA LIMA DEPARTAMENTO LIMA ","Avenida Avenida Guardia Civil N°227, 229, Urb Corpac Distrito San Borja Provincia Lima Departamento Lima, San Borja, Lima, Perú",-12.0904931,-77.0078025
1418,DETECTA CLINICA,LIMA,LIMA,SURQUILLO,AVENIDA ANGAMOS ESTE N° 2688 DISTRITO SURQUILLO PROVINCIA LIMA DEPARTAMENTO LIMA ,"Avenida Angamos Este N° 2688 Distrito Surquillo Provincia Lima Departamento Lima, Surquillo, Lima, Perú",-12.111745,-76.9956488
1442,ESPECIALIDADES MEDICAS UNIVERSAL S.A.,LIMA,LIMA,SAN BORJA,JR EDUARDO ORDOÑEZ 468,"Jiron Eduardo Ordoñez 468, San Borja, Lima, Perú",-12.1055293,-77.0018027
1483,TAHUANTINSUYO BAJO,LIMA,LIMA,INDEPENDENCIA,AVENIDA AV. CHINCHAYSUYO CUADRA 4 - URB. TAHUANTINSUYO DISTRITO INDEPENDENCIA PROVINCIA LIMA DEPARTAMENTO LIMA ,"Avenida Avenida Chinchaysuyo Cuadra 4, Urb Tahuantinsuyo Distrito Independencia Provincia Lima Departamento Lima, Independencia, Lima, Perú",-11.9797373,-77.0574515
1551,LUIS ARIAS SCHEREIBER - HOSPITAL MILITAR CENTRAL,LIMA,LIMA,JESUS MARIA,AV FAUSTINO SANCHEZ CARRION S/N (EX. AV PERSHIN S/N),"Avenida Faustino Sanchez Carrion S/N, Jesus Maria, Lima, Perú",-12.0878765,-77.0608092
1670,INSTITUTO MEDICO QUIRURGICO AREQUIPA SA,LIMA,LIMA,LIMA,AV AREQUIPA 1180  SANTA BEATRIZ,"Avenida Arequipa 1180 Santa Beatriz, Lima, Perú",-12.0763197,-77.0358176
1755,"CENTRO MATERNO INFANTIL DE SALUD - ""VIRGEN DEL CARMEN""",LIMA,LIMA,CHORRILLOS,CALLE LEOPOLDO ARIAS NRO. 200,"Calle Leopoldo Arias Nro 200, Chorrillos, Lima, Perú",-12.1660968,-77.0204961
1792,JOSE CARLOS MARIATEGUI,LIMA,LIMA,VILLA MARIA DEL TRIUNFO,AV. PRIMAVERA CUADRA 23 S/N JOSE CARLOS MARIATEGUI,"Avenida Primavera Cuadra 23 S/N Jose Carlos Mariategui, Villa Maria Del Triunfo, Lima, Perú",-12.2289834,-76.9465232
1875,INMATER,LIMA,LIMA,SAN BORJA,AVENIDA GUARDIA CIVIL 655,"Avenida Guardia Civil 655, San Borja, Lima, Perú",-12.0962139,-77.01076739999999
1922,PIRPALAP SAC,LIMA,LIMA,LIMA,AVENIDA EMANCIPACION 785-791-799,"Avenida Emancipacion 785, 791, 799, Lima, Perú",-12.0448239,-77.04027119999999
2001,CLINICA JAVIER PRADO,LIMA,LIMA,SAN ISIDRO,AV. JAVIER PRADO ESTE 499 URB. JARDIN LIMA- SAN ISIDRO,"Avenida Javier Prado Este 499 Urb Jardin Lima, San Isidro, Lima, Perú",-12.0910983,-77.0283573
2034,KYODA Y ASOCIADOS S.A.C,LIMA,LIMA,JESUS MARIA,JR. DANIEL OLAECHEA 273,"Jiron Daniel Olaechea 273, Jesus Maria, Lima, Perú",-12.0854543,-77.0504057
2310,CLINICA QUIRURGICA SANTA MARIA S.A.,LIMA,LIMA,SURQUILLO,CALLE LAS AGUILAS NO. 360 URB. LIMATAMBO,"Calle Las Aguilas No 360 Urb Limatambo, Surquillo, Lima, Perú",-12.1034121,-77.0261531
2454,CENTRO DENTAL SAN JOSE E.I.R.L.,LIMA,LIMA,SAN ISIDRO,AV. LAS CAMELIAS 741-B 3ER PISO (01 CONSULTORIO),"Avenida Las Camelias 741, B 3Er Piso, San Isidro, Lima, Perú",-12.0970431,-77.03393710000002
2457,OFTALMOLOGÍA INTEGRAL SAC,LIMA,LIMA,MIRAFLORES,AV GRAU 228-248,"Avenida Grau 228, 248, Miraflores, Lima, Perú",-12.120495,-77.03508289999999
2460,7,LIMA,LIMA,SAN MIGUEL,CALLE DEAN SAAVEDRA 148 MARANGA SAN MIGUEL,"Calle Dean Saavedra 148 Maranga San Miguel, San Miguel, Lima, Perú",-12.0786183,-77.090239
2521,SERVICIOS MEDICOS REPROMEDIC S.A.C,LIMA,LIMA,JESUS MARIA,JR.MAXIMO ABRIL Nº 585 - 589,"JironMaximo Abril Nº 585, 589, Jesus Maria, Lima, Perú",-12.0824947,-77.0506092
2575,HOSPITAL I MARINO MOLINA SCIPPA,LIMA,LIMA,COMAS,AV. GUILLERMO DE LA FUENTE NO 515 URB. SANTA LUZMILA,"Avenida Guillermo De La Fuente No 515 Urb Santa Luzmila, Comas, Lima, Perú",-11.9438071,-77.058116
2665,CLINICA SANTA ISABEL,LIMA,LIMA,SAN BORJA,AVENIDA GUARDIA CIVIL 135 DISTRITO SAN BORJA PROVINCIA LIMA DEPARTAMENTO LIMA ,"Avenida Guardia Civil 135 Distrito San Borja Provincia Lima Departamento Lima, San Borja, Lima, Perú",-12.0894299,-77.0070575
2790,MEDICINA AVANZADA S.A.,LIMA,LIMA,JESUS MARIA,AV. GREGORIO ESCOBEDO 560,"Avenida Gregorio Escobedo 560, Jesus Maria, Lima, Perú",-12.085356,-77.0533319
2820,CENTRO DE CIRUGIA ESTETICA LAS CONDES E.I.R.L.,LIMA,LIMA,SAN BORJA,AV. JAVIER PRADO ESTE N° 2970,"Avenida Javier Prado Este N° 2970, San Borja, Lima, Perú",-12.0871129,-76.99437379999999
2840,CENTRO MÉDICO KIREI,LIMA,LIMA,VILLA MARIA DEL TRIUNFO,AVENIDA AVENIDA VILLA MARIA 745 DISTRITO VILLA MARIA DEL TRIUNFO PROVINCIA LIMA DEPARTAMENTO LIMA ,"Avenida Avenida Villa Maria 745 Distrito Villa Maria Del Triunfo Provincia Lima Departamento Lima, Villa Maria Del Triunfo, Lima, Perú",-12.1625968,-76.94545500000001
2869,CENTRO MEDICO SAN PEDRO NORTE SA,LIMA,LIMA,INDEPENDENCIA,JR. 12 DE JULIO 239 URB. 12 DE JULIO LIMA,"Jiron 12 De Julio 239 Urb 12 De Julio Lima, Independencia, Lima, Perú",-12.0031225,-77.05669999999999
3029,VISUALCENTER SAC,LIMA,LIMA,SAN MIGUEL,AV. ELMER FAUCETT 132    URB. MARANGA,"Avenida Elmer Faucett 132 Urb Maranga, San Miguel, Lima, Perú",-12.0732101,-77.098826
3108,HOSPITAL DE LA MUJER.,LIMA,LIMA,SURQUILLO,AVENIDA AV MARISCAL ANDRES AVELINO CACERES 559-563 DISTRITO SURQUILLO PROVINCIA LIMA DEPARTAMENTO LIMA ,"Avenida Avenida Mariscal Andres Avelino Caceres 559, 563 Distrito Surquillo Provincia Lima Departamento Lima, Surquillo, Lima, Perú",-12.1193164,-77.01974609999999
3163,POLICLINICO MILITAR CHORRILLOS,LIMA,LIMA,CHORRILLOS,AV: ESCUELA MILITAR S/N VILLA MILITAR OESTE,"Avenida: Escuela Militar S/N Villa Militar Oeste, Chorrillos, Lima, Perú",-12.1585812,-77.0188923
3172,CENTRO DE SALUD SURQUILLO,LIMA,LIMA,SURQUILLO,JR. NARCISO DE LA COLINA 840,"Jiron Narciso De La Colina 840, Surquillo, Lima, Perú",-12.1270358,-76.9864779
3322,CLINICAS MAISON DE SANTE SOCIEDAD ANONIMA,LIMA,LIMA,LIMA,JR. MIGUEL ALJOVIN  NRO. 208 -222,"Jiron Miguel Aljovin Nro 208, 222, Lima, Perú",-12.0572232,-77.0342417
3328,PROMOTORA ASISTENCIAL S.A.C CLINICA LIMA TAMBO,LIMA,LIMA,SAN JUAN DE LURIGANCHO,AV. PROCERES DE LA INDEPENDENCIA 2701 - Y GANIMIDES 106 - 110,"Avenida Proceres De La Independencia 2701, Y Ganimides 106, 110, San Juan De Lurigancho, Lima, Perú",-11.986855,-77.0077168
3592,SEGURO SOCIAL DE SALUD - ESSALUD,LIMA,LIMA,SANTA ANITA,"AVENIDA AV. CARRETERA CENTRAL 1345, KM. 3.5 DISTRITO JESUS MARIA PROVINCIA LIMA DEPARTAMENTO LIMA ","Avenida Avenida Carretera Central 1345, Km 35 Distrito Jesus Maria Provincia Lima Departamento Lima, Santa Anita, Lima, Perú",-12.0504369,-76.9546735
3653,CLÍNICA INTERNACIONAL,LIMA,LIMA,SAN BORJA,AVENIDA GUARDIA CIVIL MANZANA. A-4 LOTE 2 Y 3 URB. CÓRPAC AV. GUARDIA CIVIL MANZANA. A-4 LOTE 2 Y 3 URB. CÓRPAC LIMA LIMA LIMA ,"Avenida Guardia Civil Manzana A, 4 Lote 2 Y 3 Urb Córpac Avenida Guardia Civil Manzana A, 4 Lote 2 Y 3 Urb Córpac Lima Lima Lima, San Borja, Lima, Perú",-12.0983551,-76.9620498
4094,GRUPO SALUD,LIMA,LIMA,CHORRILLOS,JR. INDEPENDENCIA 242,"Jiron Independencia 242, Chorrillos, Lima, Perú",-12.1559091,-77.0218838
4185,ESPECIALIDADES MÉDICAS QUIRÚRGICAS SAN BORJA,LIMA,LIMA,SAN BORJA,AVENIDA SAN BORJA SUR NÚMERO 285 DISTRITO SAN BORJA PROVINCIA LIMA DEPARTAMENTO LIMA ,"Avenida San Borja Sur Número 285 Distrito San Borja Provincia Lima Departamento Lima, San Borja, Lima, Perú",-12.1003647,-77.0079329
4202,FRANCISCO ASTOCONDOR SALAZAR,LIMA,LIMA,SAN BORJA,AV. BOULEVARD Nº 610,"Avenida Boulevard Nº 610, San Borja, Lima, Perú",-12.0644393,-76.96804970000001
4403,BRITISH AMERICAN HOSPITAL S.A,LIMA,LIMA,SAN ISIDRO,CALLE ALFREDO SALAZAR Nº 350,"Calle Alfredo Salazar Nº 350, San Isidro, Lima, Perú",-12.1091258,-77.0394047
4415,CLINICA SANTA MARIA DEL SUR,LIMA,LIMA,SAN JUAN DE MIRAFLORES,AV. BELISARIO SUAREZ 998,"Avenida Belisario Suarez 998, San Juan De Miraflores, Lima, Perú",-12.1630853,-76.96525120000001
4476,CLÍNICA PERUANA DE LA VISION,LIMA,LIMA,JESUS MARIA,JIRÓN MAYTA CAPAC NÚMERO 1398 DISTRITO JESUS MARIA PROVINCIA LIMA DEPARTAMENTO LIMA ,"Jirón Mayta Capac Número 1398 Distrito Jesus Maria Provincia Lima Departamento Lima, Jesus Maria, Lima, Perú",-12.0764074,-77.04258039999999
4538,INSTITUTO DEL CEREBRO Y LA COLUMNA VERTEBRAL,LIMA,LIMA,MIRAFLORES,AV. ALFREDO BENAVIDES 2965,"Avenida Alfredo Benavides 2965, Miraflores, Lima, Perú",-12.1281698,-77.0043948
4769,CONSULTORIO FEMENINO OBSTETRICO MI BEBE Y YO,LIMA,LIMA,VILLA EL SALVADOR,SECTOR 1/GRUPO 7 /MANZANA M/LOTE 1 VILLA EL SALVADOR,"Sector 1/Grupo 7 /Manzana M/Lote 1 Villa El Salvador, Villa El Salvador, Lima, Perú",-12.2165935,-76.9312468
4792,CLINICA MATERNO INF. VIRGEN DEL ROSARIO S.R.L.,LIMA,LIMA,MAGDALENA DEL MAR,JR. CASTILLA N° 976,"Jiron Castilla N° 976, Magdalena Del Mar, Lima, Perú",-12.0878246,-77.0721185
4879,CLINICA MONTEFIORI,LIMA,LIMA,LA MOLINA,"AV. SEPARADORA INDUSTRIAL Nº 1818-1820 (ANTES 380-390) MZ. A1. LT 17-24, URB. CACTUS","Avenida Separadora Industrial Nº 1818, 1820 Manzana A1 Lt 17, 24, Urb Cactus, La Molina, Lima, Perú",-12.0653713,-76.9661363
4900,CLINICA SAN BARTOLOME,LIMA,LIMA,LOS OLIVOS,AVENIDA AV. CARLOS ALBERTO IZAGUIRRE N° 1142 URB. COVIDA III ETAPA MZ A LT 16 DISTRITO LOS OLIVOS PROVINCIA LIMA DEPARTAMENTO LIMA ,"Avenida Avenida Carlos Alberto Izaguirre N° 1142 Urb Covida Iii Etapa Manzana A Lt 16 Distrito Los Olivos Provincia Lima Departamento Lima, Los Olivos, Lima, Perú",-11.9913413,-77.075835
5080,INSTITUTOS OFTALMOLOGICOS ESPECIALIZADOS DR. CARLOS WONG CAM S.A.C.,LIMA,LIMA,SAN ISIDRO,"AVENIDA AV. GUARDIA CIVIL 554, CORPAC, SAN ISIDRO AV. GUARDIA CIVIL 554, CORPAC, SAN ISIDRO SAN ISIDRO LIMA LIMA ","Avenida Avenida Guardia Civil 554, Corpac, San Isidro Avenida Guardia Civil 554, San Isidro San Isidro Lima Lima, San Isidro, Lima, Perú",-12.0946178,-77.0105312
5109,CLINICA RICARDO PALMA,LIMA,LIMA,SAN ISIDRO,AV. JAVIER PRADO ESTE 1066,"Avenida Javier Prado Este 1066, San Isidro, Lima, Perú",-12.0906435,-77.018258
5153,CLINICA MONTE SINAI,LIMA,LIMA,LINCE,JIRÓN JR. GARCILASO DE LA VEGA 1799 DISTRITO LINCE PROVINCIA LIMA DEPARTAMENTO LIMA ,"Jirón Jiron Garcilaso De La Vega 1799 Distrito Lince Provincia Lima Departamento Lima, Lince, Lima, Perú",-12.0830866,-77.0406478
5168,CLINICA MADRE ZORAIDA,LIMA,LIMA,LURIGANCHO,JIRÓN ESQUINA DE JR. CHUCUITO Y JR. TRUJILLO SUR S/N NÚMERO S/N DISTRITO LURIGANCHO PROVINCIA LIMA DEPARTAMENTO LIMA ,"Jirón Esquina De Jiron Chucuito Y Jiron Trujillo Sur S/N Número S/N Distrito Lurigancho Provincia Lima Departamento Lima, Lurigancho, Lima, Perú",-11.9387227,-76.699213
5208,CLINICA LIMATAMBO,LIMA,LIMA,SAN ISIDRO,AVENIDA AV. REPUBLICA DE PANAMA 3606 DISTRITO SAN ISIDRO PROVINCIA LIMA DEPARTAMENTO LIMA ,"Avenida Avenida Republica De Panama 3606 Distrito San Isidro Provincia Lima Departamento Lima, San Isidro, Lima, Perú",-12.1006332,-77.0194887
5315,INSTITUTO NACIONAL DE CIENCIAS NEUROLOGICAS,LIMA,LIMA,LIMA,JR. ANCASH 1271 - LIMA,"Jiron Ancash 1271, Lima, Perú",-12.0460056,-77.0157612
5319,CLINICA EL GOLF,LIMA,LIMA,SAN ISIDRO,AVENIDA AV AURELIO MIROQUESADA 1030 DISTRITO SAN ISIDRO PROVINCIA LIMA DEPARTAMENTO LIMA ,"Avenida Avenida Aurelio Miroquesada 1030 Distrito San Isidro Provincia Lima Departamento Lima, San Isidro, Lima, Perú",-12.0986172,-77.0517351
5609,CLINICA MONTELUZ,LIMA,LIMA,PUENTE PIEDRA,AVENIDA AV. BUENOS AIRES Nº 2307 DISTRITO PUENTE PIEDRA PROVINCIA LIMA DEPARTAMENTO LIMA ,"Avenida Avenida Buenos Aires Nº 2307 Distrito Puente Piedra Provincia Lima Departamento Lima, Puente Piedra, Lima, Perú",-11.8476995,-77.098315
5918,CLINICA MONTE SINAI EIRL,LIMA,LIMA,LURIGANCHO,AV. LIMA NORTE 295 - CHOSICA,"Avenida Lima Norte 295, Chosica, Lurigancho, Lima, Perú",-11.9208672,-76.67578499999999
5946,LIGA CONTRA EL CÁNCER,LIMA,LIMA,PUEBLO LIBRE,AVENIDA AVENIDA BRASIL 2746 DISTRITO PUEBLO LIBRE PROVINCIA LIMA DEPARTAMENTO LIMA ,"Avenida Avenida Brasil 2746 Distrito Pueblo Libre Provincia Lima Departamento Lima, Pueblo Libre, Lima, Perú",-12.0847639,-77.06212409999999
6032,SERVICIOS DE SALUD GUADALUPE SAC.,LIMA,LIMA,CHORRILLOS,"AV. DEFENSORES DEL MORRO N° 285, URB. CHORRILLOS","Avenida Defensores Del Morro N° 285, Urb Chorrillos, Chorrillos, Lima, Perú",-12.1671043,-77.0258817
6077,CLINICA PRINCIPE S.A.C.,LIMA,LIMA,LINCE,AV. AREQUIPA N° 1800,"Avenida Arequipa N° 1800, Lince, Lima, Perú",-12.0826096,-77.034936
6380,BUENOS AIRES DE VILLA,LIMA,LIMA,CHORRILLOS,AV. BUENOS AIRES DE VILLA S/N.,"Avenida Buenos Aires De Villa S/N, Chorrillos, Lima, Perú",-12.1869719,-77.0010266
6382,VESALIO S.A.,LIMA,LIMA,SAN BORJA,CALLE JOSEPH THOMPSON N° 140 - URB. SANTO TOMAS,"Calle Joseph Thompson N° 140, Urb Santo Tomas, San Borja, Lima, Perú",-12.1063524,-77.0074155
6456,CLINICA GONZALEZ S.A.,LIMA,LIMA,LINCE,AVENIDA IGNACIO MERINO 1884,"Avenida Ignacio Merino 1884, Lince, Lima, Perú",-12.0830074,-77.03283239999999
6513,CLINICA MARIA DEL SOCORRO,LIMA,LIMA,ATE,CALLE MZ J LOTE 3-A CALLE APURIMAC 116 URB. TILDA MZ J LOTE 3-A CALLE APURIMAC 116 URB. TILDA ATE LIMA LIMA ,"Calle Manzana J Lote 3, A Calle Apurimac 116 Urb Tilda Manzana J Lote 3, A Calle Apurimac 116 Urb Tilda Ate Lima Lima, Ate, Lima, Perú",-12.0319972,-76.9355654
6534,ASOCIACION PRO VIDA PADRE BRUNO TRAVERSO,LIMA,LIMA,CHORRILLOS,CALLE JUSTO NAVEDA 371,"Calle Justo Naveda 371, Chorrillos, Lima, Perú",-12.1719552,-77.0245449
6923,PIEDRA LIZA,LIMA,LIMA,RIMAC,AV. SANTA ROSA S/N - BARRIO FISCAL PIEDRA LIZA,"Avenida Santa Rosa S/N, Barrio Fiscal Piedra Liza, Rimac, Lima, Perú",-12.0394122,-77.0172979
7003,RED DE SALUD CLINICA S.A.C.,LIMA,LIMA,LINCE,AV. AREQUIPA 2449 - 2469 - 2491,"Avenida Arequipa 2449, 2469, 2491, Lince, Lima, Perú",-12.0883881,-77.0333898
7124,ESPECIALIZADO DE SALUD MENTAL HONORIO DELGADO-HIDEYO NOGUCHI,LIMA,LIMA,SAN MARTIN DE PORRES,JR. ELOY ESPINOZA SALDAÑA 709 - URB. PALAO,"Jiron Eloy Espinoza Saldaña 709, Urb Palao, San Martin De Porres, Lima, Perú",-12.021556,-77.0611575
7194,CLINICA RENACER,LIMA,LIMA,MIRAFLORES,CALLE CALLE CORONEL INCLAN N° 986 DISTRITO MIRAFLORES PROVINCIA LIMA DEPARTAMENTO LIMA ,"Calle Calle Coronel Inclan N° 986 Distrito Miraflores Provincia Lima Departamento Lima, Miraflores, Lima, Perú",-12.1098144,-77.0313305
7294,SEGURO SOCIAL DE SALUD,LIMA,LIMA,SANTA ANITA,CARRETERA CENTRAL KM. 3.5 Nº 1351,"Carretera Central Km 35 Nº 1351, Santa Anita, Lima, Perú",-12.0504369,-76.9546735
7315,CLINICA DIVINO NIÑO JESUS - ORDEN DE MALTA,LIMA,LIMA,SAN JUAN DE MIRAFLORES,JR ISMAEL ESCOBAR 329,"Jiron Ismael Escobar 329, San Juan De Miraflores, Lima, Perú",-12.1484599,-76.9769495
7316,ASOCIACION SAN CRISTOBAL DEL NORTE,LIMA,LIMA,PUENTE PIEDRA,AV. ANCON MZ-J LT-2 EL ARENAL,"Avenida Ancon Manzana, J Lt, 2 El Arenal, Puente Piedra, Lima, Perú",-11.8303523,-77.1152493
7330,CENTRO DE EMERGENCIAS SAN PEDRO DE LOS CHORRILLOS,LIMA,LIMA,CHORRILLOS,CALLE FERROCARRIL S/N,"Calle Ferrocarril S/N, Chorrillos, Lima, Perú",-12.2101327,-76.9036262
7503,ASTOCONDOR SALAZAR EPIFANIO FRANCISCO,LIMA,LIMA,SAN BORJA,AV BOULEVARD 610 1ER PISO Y SOTANO,"Avenida Boulevard 610 1Er Piso Y Sotano, San Borja, Lima, Perú",-12.0644393,-76.96804970000001
7540,CENTRO MEDICO CASAPALCA,LIMA,HUAROCHIRI,CHICLA,"CENTRO MINERO CASAPALCA, CARRETERA CENTRAL KM 116","Centro Minero Casapalca, Carretera Central Km 116, Chicla, Huarochiri, Perú",-11.6524968,-76.2399344
7576,CENTRO MEDICO AVENDAÑO S.A.C.,LIMA,LIMA,MIRAFLORES,CALLE CALLE LEONIDAS AVENDAÑO Nº 116 DISTRITO MIRAFLORES PROVINCIA LIMA DEPARTAMENTO LIMA ,"Calle Calle Leonidas Avendaño Nº 116 Distrito Miraflores Provincia Lima Departamento Lima, Miraflores, Lima, Perú",-12.1311584,-77.0245312
7608,OFTALMOSALUD,LIMA,LIMA,SAN ISIDRO,AVENIDA AV. JAVIER PRADO ESTE N° 1142 DISTRITO SAN ISIDRO PROVINCIA LIMA DEPARTAMENTO LIMA ,"Avenida Avenida Javier Prado Este N° 1142 Distrito San Isidro Provincia Lima Departamento Lima, San Isidro, Lima, Perú",-12.0903547,-77.0171178
7703,MILENE SALUD EIRL,LIMA,LIMA,PUENTE PIEDRA,AV. SAENZ PEÑA 625,"Avenida Saenz Peña 625, Puente Piedra, Lima, Perú",-11.8624827,-77.08036709999999
8013,CLINICA SAN FELIPE S.A.,LIMA,LIMA,JESUS MARIA,AV. GREGORIO ESCOBEDO N° 650,"Avenida Gregorio Escobedo N° 650, Jesus Maria, Lima, Perú",-12.0859528,-77.05429339999999
8014,OFTALMOLOGOS CONTRERAS CAMPOS SOC. CIVIL,LIMA,LIMA,SAN ISIDRO,"AV. JAVIER PRADO ESTE Nº 1010, 10MO. PISO, URB EL PALOMAR","Avenida Javier Prado Este Nº 1010, 10Mo Piso, Urb El Palomar, San Isidro, Lima, Perú",-12.0905902,-77.0180876
8068,CLINICA MAISON DE SANTE DEL ESTE,LIMA,LIMA,SANTIAGO DE SURCO,"AV. PROLONGACION ALFREDO BENAVIDES 5362 URB. LAS GARDENIAS, SANTIAGO DE SURCO","Avenida Prolongacion Alfredo Benavides 5362 Urb Las Gardenias, Santiago De Surco, Lima, Perú",-12.130404,-76.9810759
8113,CLINICA MORILLAS S.A.,LIMA,LIMA,SANTIAGO DE SURCO,AVENIDA EL POLO 545 URBANIZACION EL DERBY,"Avenida El Polo 545 Urbanizacion El Derby, Santiago De Surco, Lima, Perú",-12.1029854,-76.9728931
8172,CLINICA PAULISTA DEL PERU S.A.C,LIMA,LIMA,SANTIAGO DE SURCO,AV. AVIACION NRO. 4786   - SANTIAGO DE SURCO,"Avenida Aviacion Nro 4786, Santiago De Surco, Lima, Perú",-12.1237169,-76.9992829
8174,GUILLERMO KAELIN  DE LA FUENTE,LIMA,LIMA,VILLA MARIA DEL TRIUNFO,AVENIDA PP.JJ. NUEVA ESPERANZA MZ 1B SUBLOTE 1 PABELLON 1 CRUCE AV. 26 DE NOVIEMBRE C/ AV DEFENSORES DE LIMA PP.JJ. NUEVA ESPERANZA MZ 1B SUBLOTE 1 PABELLON 1 CRUCE AV. 26 DE NOVIEMBRE C/ AV DEFENSORES DE LIMA VILLA MARIA DEL TRIUNFO LIMA LIMA ,"Avenida PpJj Nueva Esperanza Manzana 1B Sublote 1 Pabellon 1 Cruce Avenida 26 De Noviembre C/ Avenida Defensores De Lima PpJj Nueva Esperanza Manzana 1B Sublote 1 Pabellon 1 Cruce Avenida 26 De Noviembre C/ Avenida Defensores De Lima Villa Maria Del Triunfo Lima Lima, Villa Maria Del Triunfo, Lima, Perú",-12.1746747,-76.93405729999999
8238,INSTITUTO NEURO CARDIOVASCULAR DE LAS AMERICAS S.A.C.,LIMA,LIMA,MIRAFLORES,AVENIDA 28 DE JULIO  1331 AVENIDA 28 DE JULIO  1331 MIRAFLORES LIMA LIMA ,"Avenida 28 De Julio 1331 Avenida 28 De Julio 1331 Miraflores Lima Lima, Miraflores, Lima, Perú",-12.1302876,-77.0193117
8250,CLINICA CONTINENTAL,LIMA,LIMA,SAN BORJA,AV. SAN BORJA SUR N° 526,"Avenida San Borja Sur N° 526, San Borja, Lima, Perú",-12.1014993,-77.00363480000001
8290,CORNELIO ACUÑA ROSA MARIA,LIMA,LIMA,COMAS,"PJ. MARIANO MELGAR Nº 164, 1ER. 2DO,3ER. Y 4TO PISO, URB LA PASCANA","Pj Mariano Melgar Nº 164, 1Er 2Do, 3Er Y 4To Piso, Urb La Pascana, Comas, Lima, Perú",-11.9316769,-77.05240409999999
8301,CONSULTORIOS SAN JUAN,LIMA,LIMA,SAN MARTIN DE PORRES,"JR: FORTUNATO HERRERA 3883, URB. CONDEVILLA SEÑOR, SAN MARTIN DE PORRES","Jiron: Fortunato Herrera 3883, Urb Condevilla Señor, San Martin De Porres, Lima, Perú",-12.0212947,-77.08773819999999
8885,HOSPITAL DE BARRANCA,LIMA,BARRANCA,BARRANCA,AV. NICOLAS DE PIEROLA 210 -224,"Avenida Nicolas De Pierola 210, 224, Barranca, Perú",-10.7542777,-77.7641453
8923,CENTRO DE SALUD MATERNO INFANTIL ANCON,LIMA,LIMA,ANCON,JR. LOA 595 ANCON,"Jiron Loa 595 Ancon, Ancon, Lima, Perú",-11.7745146,-77.17282399999999
8965,SERVICIOS Y PROMOCIONES DE SALUD S.A.C.,LIMA,LIMA,SAN ISIDRO,CALLE LOS OLIVOS N° 364,"Calle Los Olivos N° 364, San Isidro, Lima, Perú",-12.0933871,-77.0353191
9069,OFTALMEDICA SUR S.A.C.,LIMA,LIMA,SANTIAGO DE SURCO,"AV. LA ENCALADA N° 923, URB. CENTRO COMERCIAL MONTERRICO","Avenida La Encalada N° 923, Urb Centro Comercial Monterrico, Santiago De Surco, Lima, Perú",-12.1065131,-76.9716597
9152,MAGDALENA,LIMA,LIMA,MAGDALENA DEL MAR,JR. JUNÍN 322,"Jiron Junín 322, Magdalena Del Mar, Lima, Perú",-12.0886131,-77.0684419
9296,CLINICA MAISON DE SANTE DEL SUR,LIMA,LIMA,CHORRILLOS,"AV. CHORRILLOS 171 - 173, CHORRILLOS","Avenida Chorrillos 171, 173, Chorrillos, Lima, Perú",-12.1571816,-77.0227792
9405,GROUP CORPORACION G & R S.A.C.,LIMA,LIMA,LOS OLIVOS,JR. LOS JAZMINES N° 122 URB. PRIMAVERA - LOS OLIVOS,"Jiron Los Jazmines N° 122 Urb Primavera, Los Olivos, Lima, Perú",-12.0088658,-77.0757818
9598,NORVISION SAC,LIMA,LIMA,PUEBLO LIBRE,AV.PASO DE LOS ANDES 850 PUEBLO LIBRE,"AvenidaPaso De Los Andes 850 Pueblo Libre, Pueblo Libre, Lima, Perú",-12.0710325,-77.05872939999999
9739,CLAS JUAN PABLO II,LIMA,LIMA,LOS OLIVOS,CALLE 28 S/N AA.HH. JUAN PABLO II,"Calle 28 S/N AaHh Juan Pablo Ii, Los Olivos, Lima, Perú",-11.9444509,-77.0769059
9836,CLINICA DE OSTEOPOROSIS Y ESPECIALIDADES,LIMA,LIMA,MIRAFLORES,AVENIDA AV. BENAVIDES # 2951 MIRAFLORES AV. BENAVIDES # 2951 MIRAFLORES MIRAFLORES LIMA LIMA ,"Avenida Avenida Benavides # 2951 Miraflores Avenida Benavides # 2951 Miraflores Miraflores Lima Lima, Miraflores, Lima, Perú",-12.1282076,-77.004543
9977,HOSPITAL II RAMÓN CASTILLA,LIMA,LIMA,LIMA,JIRÓN JIRÓN GUILLERMO DANSEY Nº 390 JIRÓN GUILLERMO DANSEY Nº 390 LIMA LIMA LIMA ,"Jirón Jirón Guillermo Dansey Nº 390 Jirón Guillermo Dansey Nº 390 Lima Lima Lima, Lima, Perú",-12.0455732,-77.0409767
9989,CLINICAS SAN BERNARDO S.A.,LIMA,LIMA,PUEBLO LIBRE,CALLE CALLE SAN  JOSE 161 DISTRITO PUEBLO LIBRE PROVINCIA LIMA DEPARTAMENTO LIMA ,"Calle Calle San Jose 161 Distrito Pueblo Libre Provincia Lima Departamento Lima, Pueblo Libre, Lima, Perú",-12.1767983,-77.02167539999999
9998,HOSPITAL III EMERGENCIAS GRAU,LIMA,LIMA,LIMA,AVENIDA GRAU N° 351,"Avenida Grau N° 351, Lima, Perú",-12.0587673,-77.0310788
10001,CLINICA MEDICA ZEGARRA S.A.C.,LIMA,LIMA,COMAS,AVENIDA AVENIDA TUPAC AMARU 1801 URB HUAQUILLAY - COMAS DISTRITO COMAS PROVINCIA LIMA DEPARTAMENTO LIMA ,"Avenida Avenida Tupac Amaru 1801 Urb Huaquillay, Comas Distrito Comas Provincia Lima Departamento Lima, Comas, Lima, Perú",-11.9455467,-77.05057719999999
10016,CLINICA UNIPLAST S.A.C.,LIMA,LIMA,SAN ISIDRO,AV. GUARDIA CIVIL 618 CORPAC,"Avenida Guardia Civil 618 Corpac, San Isidro, Lima, Perú",-12.095449,-77.01100360000001
10038,SERV.MED.ESPECIALIZADOS OFTALMIC SERVICE,LIMA,LIMA,SAN BORJA,AV. GEMINIS H-17 URB PAPA JUAN XXIII,"Avenida Geminis H, 17 Urb Papa Juan Xxiii, San Borja, Lima, Perú",-12.1089702,-76.9963387
10094,CLINICA UNIVERSITARIA S.A.C,LIMA,LIMA,COMAS,AV. UNIVERSITARIA N° 6062 Y JR. PAGADOR Nº 137 URB. SANTA LUZMILA,"Avenida Universitaria N° 6062 Y Jiron Pagador Nº 137 Urb Santa Luzmila, Comas, Lima, Perú",-11.9522075,-77.0595398
10158,NACIONAL  DOS DE MAYO,LIMA,LIMA,LIMA,PARQUE HISTORIA DE LA MEDICINA PERUANA S/N ALTURA CUADRA 13 AV GRAU,"Parque Historia De La Medicina Peruana S/N Altura Cuadra 13 Avenida Grau, Lima",-12.0567249,-77.0174033
10251,CLINICA MARIA HUARHUA E.I.R.L,LIMA,LIMA,VILLA MARIA DEL TRIUNFO,AV. LATINOAMERICA 200 JR CAÑETE 390 MZ 27 LT 4A SECT.VALLE BAJO 3ERA ETAPA JC MAREATEGUI SAN GABRIEL,"Avenida Latinoamerica 200 Jiron Cañete 390 Manzana 27 Lt 4A SectValle Bajo 3Era Etapa Jc Mareategui San Gabriel, Villa Maria Del Triunfo, Lima, Perú",-12.1674642,-76.9204126
10339,HOSPITAL DE BAJA COMPLEJIDAD HUAYCAN,LIMA,LIMA,ATE,AV JOSÉ C.MARIÁTEGUI S/N ZONA B - A.H.HUAYCÁN,"Avenida José CMariátegui S/N Zona B, AHHuaycán, Ate, Lima, Perú",-12.0152747,-76.8222641
10412,CLINICA PETRAS CIRUJANOS PLASTICOS,LIMA,LIMA,SAN ISIDRO,CALLE CALLE 6 N° 221 - URB. CORPAC DISTRITO SAN ISIDRO PROVINCIA LIMA DEPARTAMENTO LIMA ,"Calle Calle 6 N° 221, Urb Corpac Distrito San Isidro Provincia Lima Departamento Lima, San Isidro, Lima, Perú",-12.1128904,-76.9895092
10494,GONZALES PINEDO RODOLFO,LIMA,LIMA,LIMA,JR. ANTONIO MIROQUESADA NRO.332 - CERCADO,"Jiron Antonio Miroquesada Nro332, Cercado, Lima, Perú",-12.0708154,-76.9702897
10495,CLINICA INTEGRAL DE LA MUJER S.A.C.,LIMA,LIMA,JESUS MARIA,AV. SAN FELIPE 1015 - 1017,"Avenida San Felipe 1015, 1017, Jesus Maria, Lima, Perú",-12.0817789,-77.04735
10519,ASOCIACION PERUANO JAPONESA,LIMA,LIMA,PUEBLO LIBRE,AV. PASO DE LOS ANDES 675,"Avenida Paso De Los Andes 675, Pueblo Libre, Lima, Perú",-12.07194,-77.059
10521,CLINICA SAN MIGUEL ARCANGEL S.A.C.,LIMA,LIMA,SAN JUAN DE LURIGANCHO,JIRÓN JR. LAS GARDENIAS 754-760 URB. - LOS JASMINES DISTRITO SAN JUAN DE LURIGANCHO PROVINCIA LIMA DEPARTAMENTO LIMA ,"Jirón Jiron Las Gardenias 754, 760 Urb, Los Jasmines Distrito San Juan De Lurigancho Provincia Lima Departamento Lima, San Juan De Lurigancho, Lima, Perú",-11.9703388,-77.0017429
10616,CLINICA MUNDO SALUD SAC,LIMA,LIMA,LOS OLIVOS,AV. CARLOS IZAGUIRRE NO 1234,"Avenida Carlos Izaguirre No 1234, Los Olivos, Lima, Perú",-11.9912852,-77.0770199
10722,HOSPITAL I CARLOS ALCANTARA BUTTERFIELD,LIMA,LIMA,LA MOLINA,AV. LOS CONSTRUCTORES 1201 - URB. COVIMA,"Avenida Los Constructores 1201, Urb Covima, La Molina, Lima, Perú",-12.0621912,-76.94554769999999
10725,CLINICA DE MUJERES SAC,LIMA,LIMA,JESUS MARIA,AVENIDA AV FRANCISCO MARIATEGUI 1418 URB FUNDO OYAGUE AV FRANCISCO MARIATEGUI 1418 URB FUNDO OYAGUE JESUS MARIA LIMA LIMA ,"Avenida Avenida Francisco Mariategui 1418 Urb Fundo Oyague Avenida Francisco Mariategui 1418 Urb Fundo Oyague Jesus Maria Lima Lima, Jesus Maria, Lima, Perú",-12.0776238,-77.0509028
10729,OCULASER CENTRO DE MICROCIRUGIA Y LASER SAC,LIMA,LIMA,LIMA,AV. ARENALES 1181LIMA CERCADO,"Avenida Arenales 1181Lima Cercado, Lima, Perú",-12.076541,-77.0366037
10809,LOS SUREÑOS,LIMA,LIMA,PUENTE PIEDRA,COOP.  VIVIENDA LOS SUREÑOS MZ M LT. 35,"Coop Vivienda Los Sureños Manzana M Lt 35, Puente Piedra, Lima, Perú",-11.8876691,-77.069582
10813,CENTRO MATERNO INFANTIL SAN JOSE,LIMA,LIMA,VILLA EL SALVADOR,"AV. LOS ÁNGELES S/N, SECTOR 1, GRUPO 15","Avenida Los Ángeles S/N, Sector 1, Grupo 15, Villa El Salvador, Lima, Perú",-12.1987988,-76.9471057
10833,CLINICA MIRAFLORES,LIMA,LIMA,MIRAFLORES,CALLE J.A. ENCINAS 141 URBANIZACIÓN EL ROSEDAL,"Calle JA Encinas 141 Urbanización El Rosedal, Miraflores, Lima, Perú",-12.1273525,-77.0136222
11033,HOSPITAL I ULDARICO ROCCA FERNANDEZ,LIMA,LIMA,VILLA EL SALVADOR,AV.SEPARADORA INDUSTRIAL Y AV. CESAR VALLEJO,"AvenidaSeparadora Industrial Y Avenida Cesar Vallejo, Villa El Salvador, Lima, Perú",-12.210533,-76.9315525
11212,"HOSPITAL""ROSALIA  DE LAVALLE DE MORALES MACEDO - SOCIEDAD DE BENEFICIENCIA DE LIMA METROPOLITANA",LIMA,LIMA,MIRAFLORES,GERVASIO SANTILLANA Nº 260,"Gervasio Santillana Nº 260, Miraflores, Lima, Perú",-12.1043456,-77.0296402
11292,CLINICA SAN MARCOS S.A.,LIMA,LIMA,BREÑA,JIRÓN JR HUARAZ 1425 JR HUARAZ 1425 BREÑA LIMA LIMA ,"Jirón Jiron Huaraz 1425 Jiron Huaraz 1425 Breña Lima Lima, Breña, Lima, Perú",-12.0618637,-77.0465364
11332,HOSPITAL VICTOR LARCO HERRERA,LIMA,LIMA,MAGDALENA DEL MAR,AV.AUGUSTO PEREZ ARANIBAR N° 600,"AvenidaAugusto Perez Aranibar N° 600, Magdalena Del Mar, Lima, Perú",-12.107513,-77.0544111
11384,CLINICA ZIEGLER CIRUGIA PLASTICA,LIMA,LIMA,SAN ISIDRO,AVENIDA AV. GUARDIA CIVIL Nº 990 DISTRITO SAN ISIDRO PROVINCIA LIMA DEPARTAMENTO LIMA ,"Avenida Avenida Guardia Civil Nº 990 Distrito San Isidro Provincia Lima Departamento Lima, San Isidro, Lima, Perú",-12.1015527,-77.01433279999999
11545,VILLA MARIA DEL TRIUNFO,LIMA,LIMA,VILLA MARIA DEL TRIUNFO,AV. PEDRO VALLE S/N (ALTURA CUADRA 18 AV.EL TRIUNFO),"Avenida Pedro Valle S/N, Villa Maria Del Triunfo, Lima, Perú",-12.1575741,-76.936013
11632,MEGASALUD NARANJAL S.A.C.,LIMA,LIMA,LOS OLIVOS,AV. NARANJAL 1582 URB PARQUE NARANJAL 2DA ETAPA,"Avenida Naranjal 1582 Urb Parque Naranjal 2Da Etapa, Los Olivos, Lima, Perú",-11.9759664,-77.0847833
11654,POLICLINICO CORI,LIMA,LIMA,LOS OLIVOS,"AVENIDA CARLOS ALBERTO IZAGUIRRE 978 L 13, 14, 15 LAS PALMERAS A una cuadra de la Municipalidad de Los Olivos LOS OLIVOS LIMA LIMA ","Avenida Carlos Alberto Izaguirre 978 L 13, 14, 15 Las Palmeras A Una Cuadra De La Municipalidad De Los Olivos Los Olivos Lima Lima, Los Olivos, Lima, Perú",-11.991564,-77.0707092
11747,CLINICA QUINTANILLA,LIMA,LIMA,SAN BORJA,AVENIDA AV. DE LAS ARTES SUR NÚMERO 193 DISTRITO SAN BORJA PROVINCIA LIMA DEPARTAMENTO LIMA ,"Avenida Avenida De Las Artes Sur Número 193 Distrito San Borja Provincia Lima Departamento Lima, San Borja, Lima, Perú",-12.0963837,-77.00548239999999
11755,CLINICA SANTA LUCIA S.A.C.,LIMA,LIMA,SAN BORJA,AV. GUARDIA CIVIL 301,"Avenida Guardia Civil 301, San Borja, Lima, Perú",-12.09136,-77.00841
11795,TABLADA DE LURIN,LIMA,LIMA,VILLA MARIA DEL TRIUNFO,AV. REPUBLICA Y BILLINGURST S/N 2DO SECTOR,"Avenida Republica Y Billingurst S/N 2Do Sector, Villa Maria Del Triunfo, Lima, Perú",-12.18906,-76.92475
11796,DANIEL ALCIDES CARRION,LIMA,LIMA,VILLA MARIA DEL TRIUNFO,AV. PACHACUTEC Nº 3470,"Avenida Pachacutec Nº 3470, Villa Maria Del Triunfo, Lima, Perú",-12.1780681,-76.9457418
11841,OFTALMICA S.A.,LIMA,LIMA,SAN BORJA,AVENIDA SAN BORJA NORTE  783  - 794 SAN BORJA LIMA LIMA ,"Avenida San Borja Norte 783, 794 San Borja Lima Lima, San Borja, Lima, Perú",-12.093545,-76.9996783
12028,INSTITUTO NACIONAL CARDIOVASCULAR CARLOS ALBERTO PESCHIERA CARRILLO - INCOR,LIMA,LIMA,JESUS MARIA,JIRON CORONEL FÉLIX ZEGARRA Nº.S 397-417-455-465-491-495,"Jiron Coronel Félix Zegarra NºS 397, 417, 455, 465, 491, 495, Jesus Maria, Lima, Perú",-12.0765935,-77.0422769
12086,CENTRO DE CATARATA Y LASER E.I.R.L.,LIMA,LIMA,SAN BORJA,AV. SAN BORJA SUR Nº 536,"Avenida San Borja Sur Nº 536, San Borja, Lima, Perú",-12.1016033,-77.0036137
12112,CASTELLARES Y ASOCIADOS S.C.R.L.,LIMA,LIMA,ATE,JIRON LOS ABETOS N° 210 URB. JAVIER PRADO,"Jiron Los Abetos N° 210 Urb Javier Prado, Ate, Lima, Perú",-12.0815094,-76.981675
12113,CASTELLARES Y ASOCIADOS S.C.R.L.,LIMA,LIMA,ATE,JIRON LOS ABETOS 158 URB. JAVIER PRADO,"Jiron Los Abetos 158 Urb Javier Prado, Ate, Lima, Perú",-12.0817182,-76.9819773
12144,NACIONAL ARZOBISPO LOAYZA,LIMA,LIMA,LIMA,AV. ALFONSO UGARTE 848,"Avenida Alfonso Ugarte 848, Lima, Perú",-12.0503843,-77.0433584
12170,SERVICIOS MEDICOS ATLANTIS SRL,LIMA,LIMA,LURIGANCHO,JR. PUNO 182- CHOSICA,"Jiron Puno 182, Chosica, Lurigancho, Lima, Perú",-12.0505498,-77.0333804
12288,LURIN,LIMA,LIMA,LURIN,JIRÓN GRAU Nº 370 JR. GRAU Nº 370 VILLA EL SALVADOR LIMA LIMA ,"Jirón Grau Nº 370 Jiron Grau Nº 370 Villa El Salvador Lima Lima, Lurin, Lima, Perú",-12.0926415,-77.0731644
12300,SAN MARTIN PLASTICA & ESTETICA,LIMA,LIMA,SANTIAGO DE SURCO,JIRÓN JIRON BREA Y PARIÑAS 109 URB. TAMBO DE MONTERRICO DISTRITO SANTIAGO DE SURCO PROVINCIA LIMA DEPARTAMENTO LIMA ,"Jirón Jiron Brea Y Pariñas 109 Urb Tambo De Monterrico Distrito Santiago De Surco Provincia Lima Departamento Lima, Santiago De Surco, Lima, Perú",-12.1152892,-76.99159449999999
12433,SANTA ROSA,LIMA,LIMA,PUENTE PIEDRA,"AA.HH. SANTA ROSA, MZ. 50, LOTE PM - AV. SANTA ROSA","AaHh Santa Rosa, Manzana 50, Lote Pm, Avenida Santa Rosa, Puente Piedra, Lima, Perú",-11.8739875,-77.0836441
12486,TRAUMATOLOGIA Y ORTOPEDIA AYBAR & AS SAC,LIMA,LIMA,JESUS MARIA,AV. SAN FELIPE N° 142,"Avenida San Felipe N° 142, Jesus Maria, Lima, Perú",-12.0813453,-77.05799789999999
12555,RIMAC,LIMA,LIMA,RIMAC,PASAJE SAN GERMAN Nº 270 URB. VILLACAMPA  RIMAC,"Pasaje San German Nº 270 Urb Villacampa  Rimac, Rimac, Lima, Perú",,
12621,CLINICA DEL NORTE,LIMA,LIMA,LOS OLIVOS,AVENIDA UNIVERSITARIA MZ- B LT- 12 COOP. CAJABAMBA DISTRITO LOS OLIVOS PROVINCIA LIMA DEPARTAMENTO LIMA ,"Avenida Universitaria Manzana, B Lt, 12 Coop Cajabamba Distrito Los Olivos Provincia Lima Departamento Lima, Los Olivos, Lima, Perú",-11.9900727,-77.0820218
12685,ASOCIACION CIVIL NUESTRA SEÑORA DEL SAGRADO CORAZON,LIMA,LIMA,PUEBLO LIBRE,AV. PASO DE LOS ANDES Nº 923,"Avenida Paso De Los Andes Nº 923, Pueblo Libre, Lima, Perú",-12.0711283,-77.0596844
12688,CLINICA LA LUZ S.A.C.,LIMA,LIMA,LIMA,AVENIDA AV. AREQUIPA 1148 - URB. SANTA BEATRIZ AV. AREQUIPA 1148 - URB. SANTA BEATRIZ LIMA LIMA LIMA ,"Avenida Avenida Arequipa 1148, Urb Santa Beatriz Avenida Arequipa 1148, Urb Santa Beatriz Lima Lima Lima, Lima, Perú",-12.0762607,-77.0358918
12748,CLÍNICA DELGADO,LIMA,LIMA,MIRAFLORES,AVENIDA AV ANGAMOS OESTE N°450-490 DISTRITO MIRAFLORES PROVINCIA LIMA DEPARTAMENTO LIMA ,"Avenida Avenida Angamos Oeste N°450, 490 Distrito Miraflores Provincia Lima Departamento Lima, Miraflores, Lima, Perú",-12.113601,-77.0332293
12808,INSTITUTO NACIONAL DE SALUD DEL NIÑO,LIMA,LIMA,BREÑA,AV. BRASIL Nº 600,"Avenida Brasil Nº 600, Breña, Lima, Perú",-12.0645734,-77.04578719999999
12871,SANTA ANITA,LIMA,LIMA,SANTA ANITA,CALLE LOS MOCHICAS S/N PARQUE LAMPA DE ORO  COOP.CHANCAS DE ANDAHUAYLAS-SANTA ANITA NÚMERO S/N DISTRITO SANTA ANITA PROVINCIA LIMA DEPARTAMENTO LIMA,"Calle Los Mochicas S/N Parque Lampa De Oro CoopChancas De Andahuaylas, Santa Anita Número S/N Distrito Santa Anita Provincia Lima Departamento Lima, Santa Anita, Lima, Perú",-12.0418305,-76.9684467
13015,CLINICA SOLIDARIA LA CAMPIÑA E.I.R.L,LIMA,LIMA,CHORRILLOS,JIRÓN JR TOLOMEO 142 LA CAMPIÑA CHORRILLOS DISTRITO CHORRILLOS PROVINCIA LIMA DEPARTAMENTO LIMA ,"Jirón Jiron Tolomeo 142 La Campiña Chorrillos Distrito Chorrillos Provincia Lima Departamento Lima, Chorrillos, Lima, Perú",-12.1844318,-76.99937299999999
13019,CLINICA MICHAUD,LIMA,LIMA,MIRAFLORES,AV. ALFREDO BENAVIDES 2965 - URB. AURORA,"Avenida Alfredo Benavides 2965, Urb Aurora, Miraflores, Lima, Perú",-12.1281698,-77.0043948
13071,ESSALUD - HOSPITAL II SUÁREZ ANGAMOS,LIMA,LIMA,MIRAFLORES,AV. ANGAMOS ESTE Nº 261,"Avenida Angamos Este Nº 261, Miraflores, Lima, Perú",-12.1130065,-77.0276514
13073,SEGURO SOCIAL DE SALUD,LIMA,LIMA,ATE,JR. SAN MARTIN DE PORTES 265,"Jiron San Martin De Portes 265, Ate, Lima, Perú",-12.0185821,-76.88535209999999
13247,PERIMEDIC,LIMA,LIMA,COMAS,URBANIZACIÓN CARABAYLLO II ETAPA MANZANA A LOTE 18 DISTRITO COMAS PROVINCIA LIMA DEPARTAMENTO LIMA ,"Urbanización Carabayllo Ii Etapa Manzana A Lote 18 Distrito Comas Provincia Lima Departamento Lima, Comas, Lima, Perú",-11.9700488,-77.0586051
13321,ERICK JOHN RAMIREZ ARANDA,LIMA,LIMA,PUEBLO LIBRE,AV. PASO DE LOS ANDES 550,"Avenida Paso De Los Andes 550, Pueblo Libre, Lima, Perú",-12.0748315,-77.05894239999999
13370,INSTITUTO MEDICO YANAYACO S.A.,LIMA,LIMA,SAN BORJA,AV LAS ARTES NORTE 1105,"Avenida Las Artes Norte 1105, San Borja, Lima, Perú",-12.089674,-76.995295
13404,VISUAL CENTER CLINICA DE OJOS,LIMA,LIMA,SAN MIGUEL,AVENIDA AV. ELMER FAUCETT NO 170 DISTRITO SAN MIGUEL PROVINCIA LIMA DEPARTAMENTO LIMA ,"Avenida Avenida Elmer Faucett No 170 Distrito San Miguel Provincia Lima Departamento Lima, San Miguel, Lima, Perú",-12.0723568,-77.0986102
13474,CLINICA SERVICIOS MEDICOS INTEGRALES SAN MARCOS,LIMA,LIMA,SAN JUAN DE LURIGANCHO,AV. SANTA ROSA 1719 - URB. INCA MANCO CAPAC,"Avenida Santa Rosa 1719, Urb Inca Manco Capac, San Juan De Lurigancho, Lima, Perú",-12.0020113,-76.9995756
13477,ASOCIACION HIJAS DE SAN CAMILO,LIMA,LIMA,SANTIAGO DE SURCO,JR. EL POLO 570 MONTERRICO-SANTIAGO DE SURCO,"Jiron El Polo 570 Monterrico, Santiago De Surco, Lima, Perú",-12.1025148,-76.9721514
13485,HOSPITAL SAN JUAN BAUTISTA HUARAL,LIMA,HUARAL,HUARAL,CALLE CALLE TACNA Nº 120 URB. SAN JUAN I DISTRITO HUARAL PROVINCIA HUARAL DEPARTAMENTO LIMA ,"Calle Calle Tacna Nº 120 Urb San Juan I Distrito Huaral Provincia Huaral Departamento Lima, Huaral, Perú",-11.5026039,-77.21299739999999
13578,CLINICA SANTA LEONOR,LIMA,LIMA,CHORRILLOS,AVENIDA AV. DEFENSORS DEL MORRO Nº 2697 - URB. SANTA LEONOR DISTRITO CHORRILLOS PROVINCIA LIMA DEPARTAMENTO LIMA ,"Avenida Avenida Defensors Del Morro Nº 2697, Urb Santa Leonor Distrito Chorrillos Provincia Lima Departamento Lima, Chorrillos, Lima, Perú",-12.1837114,-77.0090056
13786,INSTITUTO DE GINECOLOGIA Y REPRODUCCION S.A.,LIMA,LIMA,SANTIAGO DE SURCO,AV. MANUEL OLGUIN 1045 - 1047,"Avenida Manuel Olguin 1045, 1047, Santiago De Surco, Lima, Perú",-12.1030131,-76.97383409999999
13845,INSTITUTO KIRSCHBAUM DE CIRUGIA PLASTICA Y ESTETICA S.C.R.L.,LIMA,LIMA,SAN BORJA,AV. JAVIER PRADO ESTE 2973,"Avenida Javier Prado Este 2973, San Borja, Lima, Perú",-12.08636,-76.9937599
13863,CLINICA MONTESUR,LIMA,LIMA,SANTIAGO DE SURCO,AVENIDA AV. EL POLO NRO. 505 URB. EL DERBY MONTERRICO DISTRITO SANTIAGO DE SURCO PROVINCIA LIMA DEPARTAMENTO LIMA ,"Avenida Avenida El Polo Nro 505 Urb El Derby Monterrico Distrito Santiago De Surco Provincia Lima Departamento Lima, Santiago De Surco, Lima, Perú",-12.1033633,-76.97299559999999
13873,HOSPITAL II GUSTAVO LANATTA LUJAN - ESSALUD,LIMA,HUAURA,HUACHO,AVENIDA FRANCISCO VIDAL Nº 707,"Avenida Francisco Vidal Nº 707, Huacho, Huaura, Perú",-11.1129497,-77.608706
14065,OLLANTAY,LIMA,LIMA,SAN JUAN DE MIRAFLORES,AV. PROLONGACION GABRIEL TORRES S/N. PAMPLONA ALTA,"Avenida Prolongacion Gabriel Torres S/N Pamplona Alta, San Juan De Miraflores, Lima, Perú",-12.14898,-76.9739699
14067,HOSPITAL II CAÑETE,LIMA,CAÑETE,SAN VICENTE DE CAÑETE,AV. MARISCAL BENAVIDES Nº 495,"Avenida Mariscal Benavides Nº 495, San Vicente De Cañete, Cañete, Perú",-13.0751576,-76.3801427
14097,CLINICA CEDRON,LIMA,LIMA,SANTIAGO DE SURCO,AVENIDA AV EL POLO 438 CC MONTERRICO DISTRITO SANTIAGO DE SURCO PROVINCIA LIMA DEPARTAMENTO LIMA ,"Avenida Avenida El Polo 438 Cc Monterrico Distrito Santiago De Surco Provincia Lima Departamento Lima, Santiago De Surco, Lima, Perú",-12.104662,-76.9729184
14147,OPTIMA VISION S.R.L.,LIMA,LIMA,MIRAFLORES,AV. ANGAMOS OESTE 884,"Avenida Angamos Oeste 884, Miraflores, Lima, Perú",-12.1137996,-77.0377585
14149,RAMOS LARREA,LIMA,CAÑETE,IMPERIAL,OTROS URB. RAMOS LARREA MZ H LOTE 1 Y 2 DISTRITO IMPERIAL PROVINCIA CAÑETE DEPARTAMENTO LIMA ,"Otros Urb Ramos Larrea Manzana H Lote 1 Y 2 Distrito Imperial Provincia Cañete Departamento Lima, Imperial, Cañete, Perú",-13.0605258,-76.35312189999999
14182,UNIDAD EJECUTORA 020: SANIDAD DE LA PNP,LIMA,LIMA,RIMAC,PSJE SAN GERMAN S/N CUADRA 2 - URB VILLACAMPA,"Psje San German S/N Cuadra 2, Urb Villacampa, Rimac, Lima, Perú",-12.0705403,-77.0108783
14273,CLINICA MARIA SOCIEDAD COMERCIAL DE RESPONSABILIDAD LIMITADA,LIMA,LIMA,LOS OLIVOS,JR: AQUIA 4844 URB. NARANJAL,"Jiron: Aquia 4844 Urb Naranjal, Los Olivos, Lima, Perú",-11.9814712,-77.080948
14316,CENTRO MEDICO CLINICA SAN JUDAS TADEO S.A.,LIMA,LIMA,SAN MIGUEL,CALLE MANUEL RAYGADA Nº 170 (ANEXO EN CALLE LAUREANO MARTINEZ Nº 140) - URB EL CAMPILLO,"Calle Manuel Raygada Nº 170, Urb El Campillo, San Miguel, Lima, Perú",-12.080003,-77.080145
14320,POLICLINICO ÑAHUI E.I.R.L.,LIMA,LIMA,SURQUILLO,AV. ANGAMOS ESTE Nº 714 - 1ER 2DO Y 3ER PISO,"Avenida Angamos Este Nº 714, 1Er 2Do Y 3Er Piso, Surquillo, Lima, Perú",-12.1136064,-77.0240805
14336,CLINICA REAL LOS LAURELES S.A.C,LIMA,LIMA,CHORRILLOS,CALLE ARMANDO CAMBANA Nº279 URB. LOS LAURELES - CHORRILLOS,"Calle Armando Cambana Nº279 Urb Los Laureles, Chorrillos, Lima, Perú",-12.1744472,-77.0201249
14541,MEDICAL PLASTIC E.I.R.L.,LIMA,LIMA,MAGDALENA DEL MAR,AV BRASIL 3281,"Avenida Brasil 3281, Magdalena Del Mar, Lima, Perú",-12.0896085,-77.0654182
14545,FUERZA AEREA DEL PERU,LIMA,LIMA,MIRAFLORES,AV. ARAMBURU 2DA. CUADRA S/N,"Avenida Aramburu 2Da Cuadra S/N, Miraflores, Lima, Perú",-12.103244,-77.0295196
14674,UNIDAD EJECUTORA 020:SANIDAD DE LA PNP,LIMA,LIMA,SAN MIGUEL,JR RAMON CASTILLA 590,"Jiron Ramon Castilla 590, San Miguel, Lima, Perú",-12.0455376,-77.1009788
14747,CLINICA INTERNACIONAL S.A.,LIMA,LIMA,LIMA,JR. WASHINGTON 1471,"Jiron Washington 1471, Lima, Perú",-12.0594114,-77.03882399999999
14751,CLINICA DE OJOS DOPELUCE S.A.C.,LIMA,LIMA,LINCE,AV AREQUIPA 1885,"Avenida Arequipa 1885, Lince, Lima, Perú",-12.0833357,-77.03434
14752,MATERNO INFANTIL DR. ENRIQUE MARTIN ALTUNA,LIMA,LIMA,PUENTE PIEDRA,ASOC VIV E INDUSTRIAS VIRGEN DE LAS NIEVES URB LEONCIO PRADO MZ B LT. 18A KM 35.5 PANAM. NORTE,"Asoc Viv E Industrias Virgen De Las Nieves Urb Leoncio Prado Manzana B Lt 18A Km 355 Panam Norte, Puente Piedra, Lima, Perú",-12.0316117,-77.02981919999999
14832,HOSPITAL CARLOS LANFRANCO LA HOZ,LIMA,LIMA,PUENTE PIEDRA,AV. SAENZ PEÑA - CUADRA 6 S/N,"Avenida Saenz Peña, Cuadra 6 S/N, Puente Piedra, Lima, Perú",-11.8629099,-77.0798273
14938,CLINICA ESPECIALIZADA EN CIRUGÍA PLÁSTICA SAN AGUSTIN,LIMA,LIMA,PUEBLO LIBRE,"AVENIDA BRASIL 2630, INTERIOR ""A"" Y LA AV BRASIL 2610, INTERIOR 101 DISTRITO PUEBLO LIBRE PROVINCIA LIMA DEPARTAMENTO LIMA ","Avenida Brasil 2630, Interior ""A"" Y La Avenida Brasil 2610, Interior 101 Distrito Pueblo Libre Provincia Lima Departamento Lima, Pueblo Libre, Lima, Perú",-12.0835739,-77.0611115
15093,"INSTITUTO NACIONAL DE REHABILITACION ""DRA. ADRIANA REBAZA FLORES"" AMISTAD PERU - JAPON",LIMA,LIMA,CHORRILLOS,AVENIDA AV. DEFENSORES DEL MORRO N° 213 - 215 DISTRITO CHORRILLOS PROVINCIA LIMA DEPARTAMENTO LIMA ,"Avenida Avenida Defensores Del Morro N° 213, 215 Distrito Chorrillos Provincia Lima Departamento Lima, Chorrillos, Lima, Perú",-12.1667714,-77.02613889999999
15135,SAN FERNANDO,LIMA,LIMA,ATE,JIRÓNJOSE SANTOS CHOCANO CDRA.01 S/N - URB.VALDIVIEZO NÚMERO S/N DISTRITO ATE PROVINCIA LIMA DEPARTAMENTO LIMA,"Jirónjose Santos Chocano Cuadra01 S/N, UrbValdiviezo Número S/N Distrito Ate Provincia Lima Departamento Lima, Ate, Lima, Perú",-12.0184233,-76.8824782
15164,HOSPITAL NACIONAL HIPOLITO UNANUE,LIMA,LIMA,EL AGUSTINO,AVENIDA CÉSAR VALLEJO 1390 - EL AGUSTINO AV. CÉSAR VALLEJO 1390 - EL AGUSTINO EL AGUSTINO LIMA LIMA ,"Avenida César Vallejo 1390, El Agustino Avenida César Vallejo 1390, El Agustino El Agustino Lima Lima, El Agustino, Lima, Perú",-12.03992,-76.99249999999999
15184,NACIONAL DE OFTALMOLOGIA,LIMA,LIMA,LIMA,AVENIDA AV. TINGO MARÍA Nº 398 DISTRITO LIMA PROVINCIA LIMA DEPARTAMENTO LIMA ,"Avenida Avenida Tingo María Nº 398 Distrito Lima Provincia Lima Departamento Lima, Lima, Perú",-12.0512579,-77.0557194
15218,MIGUEL GRAU,LIMA,LIMA,CHACLACAYO,CARRETERA CARRETERA CENTRAL KILOMETRO 19.5 - COOP.VIV. MIGUEL GRAU DISTRITO CHACLACAYO PROVINCIA LIMA DEPARTAMENTO LIMA ,"Carretera Carretera Central Kilometro 195, CoopViv Miguel Grau Distrito Chaclacayo Provincia Lima Departamento Lima, Chaclacayo, Lima, Perú",-11.9795888,-76.787016
15219,HOSPITAL GENERAL DE HUACHO,LIMA,HUAURA,HUACHO,AVENIDA JOSE ARAMBULO LA ROSA Nº 221-251-271,"Avenida Jose Arambulo La Rosa Nº 221, 251, 271, Huacho, Huaura, Perú",-11.1158556,-77.6074757
15440,HOSPITAL REZOLA,LIMA,CAÑETE,SAN VICENTE DE CAÑETE,CALLE SAN MARTIN Nº 120 -124  SAN VICENTE,"Calle San Martin Nº 120, 124 San Vicente, San Vicente De Cañete, Cañete, Perú",-13.0777593,-76.3883481
15460,REJUVENECIMIENTO Y ESTETICA CABANI SRL,LIMA,LIMA,SAN BORJA,AV GUARDIA CIVIL 627,"Avenida Guardia Civil 627, San Borja, Lima, Perú",-12.0960577,-77.01069989999999
15461,HOSPITAL HERMILIO VALDIZAN,LIMA,LIMA,SANTA ANITA,CARRETERA CARRETERA CENTRAL KM 3.5 SANTA ANITA DISTRITO SANTA ANITA PROVINCIA LIMA DEPARTAMENTO LIMA ,"Carretera Carretera Central Km 35 Santa Anita Distrito Santa Anita Provincia Lima Departamento Lima, Santa Anita, Lima, Perú",-12.0504369,-76.9546735
15614,POLICLINICO SAN VICENTE - CAÑETE E.I.R.L.,LIMA,CAÑETE,SAN VICENTE DE CAÑETE,AVENIDA MARISCAL BENAVIDES N°138. SAN VICENTE. CAÑETE,"Avenida Mariscal Benavides N°138 San Vicente Cañete, San Vicente De Cañete, Cañete, Perú",-13.0763781,-76.38379239999999
15725,HUMANA INSTITUTO DE SALUD PARA LA MUJER SRL,LIMA,LIMA,LA MOLINA,AV. FLORA TRISTAN 2002 - CALLE FERNANDO BONILLA 115 - URB. SANTA PATRICIA,"Avenida Flora Tristan 2002, Calle Fernando Bonilla 115, Urb Santa Patricia, La Molina, Lima, Perú",-12.0728559,-76.9407647
15922,CASA DE REPOSO SEÑOR DE NAZARENO,LIMA,LIMA,SAN BORJA,AV. LAS ARTES NORTES 1249  -  1247,"Avenida Las Artes Nortes 1249, 1247, San Borja, Lima, Perú",-12.0892295,-76.99239879999999
16083,OMNIA VISION S.A.,LIMA,LIMA,SANTIAGO DE SURCO,AV. INTUHUATANA Nº 495 - URB. TAMBO DE MONTERRICO - SANTIAGO DE SURCO.,"Avenida Intuhuatana Nº 495, Urb Tambo De Monterrico, Santiago De Surco, Lima, Perú",-12.1153036,-76.9951549
16248,MANUEL BARRETO,LIMA,LIMA,SAN JUAN DE MIRAFLORES,JR. MANUEL BARRETO S/N ZONA K-CIUDAD DE DIOS,"Jiron Manuel Barreto S/N Zona K, Ciudad De Dios, San Juan De Miraflores, Lima, Perú",-12.1538962,-76.96830330000002
16249,JOSE GALVEZ,LIMA,LIMA,VILLA MARIA DEL TRIUNFO,CRUCE CALLE ARICA CON AGRICULTURA S/N,"Cruce Calle Arica Con Agricultura S/N, Villa Maria Del Triunfo, Lima, Perú",-12.210089,-76.9071711
16252,HOSPITAL I OCTAVIO MONGRUT MUÑOZ,LIMA,LIMA,SAN MIGUEL,AV PARQUE DE LAS LEYENDAS 255,"Avenida Parque De Las Leyendas 255, San Miguel, Lima, Perú",-12.0658784,-77.09449819999999
16283,HOSPITAL DE MEDIANA COMPLEJIDAD JOSE AGURTO TELLO,LIMA,LIMA,LURIGANCHO,JR. AREQUIPA 214-218,"Jiron Arequipa 214, 218, Lurigancho, Lima, Perú",-11.9562044,-77.0516197
16436,ENFERMERIA DE CADETES DE LA ESCUELA MILITAR DE CHORRILLOS,LIMA,LIMA,CHORRILLOS,AVENIDA ESCUELA MILITAR S/N CHORRILLOS S/N AVENIDA ESCUELA MILITAR S/N CHORRILLOS SAN BORJA LIMA LIMA ,"Avenida Escuela Militar S/N Chorrillos S/N Avenida Escuela Militar S/N Chorrillos San Borja Lima Lima, Chorrillos, Lima, Perú",-12.1609201,-77.0191991
16448,HOSPITAL SAN JUAN DE LURIGANCHO,LIMA,LIMA,SAN JUAN DE LURIGANCHO,ENTRE PARADERO 10 Y 11 DE AV. CANTO GRANDE (HUASCAR),"Entre Paradero 10 Y 11 De Avenida Canto Grande, San Juan De Lurigancho, Lima, Perú",-11.9615255,-77.0002504
16528,FUNDACION PARA EL TRATAMIENTO DE GLAUCOMA Y CATARATA SOCIEDAD ANONIMA CERRADA,LIMA,LIMA,JESUS MARIA,JIRON CARACAS 2410,"Jiron Caracas 2410, Jesus Maria, Lima, Perú",-12.0854421,-77.0568322
16608,HOSPITAL DE SUPE LAURA ESTHER RODRIGUEZ DULANTO,LIMA,BARRANCA,SUPE,JIRÓN  ALFONSO UGARTE Nº 350 DISTRITO SUPE PROVINCIA BARRANCA DEPARTAMENTO LIMA,"Jirón Alfonso Ugarte Nº 350 Distrito Supe Provincia Barranca Departamento Lima, Supe, Barranca, Perú",-10.7517691,-77.7584124
16655,INSTITUTO NACIONAL DE ENFERMEDADES NEOPLASICAS,LIMA,LIMA,SURQUILLO,"AV. ANGAMOS ESTE 2520, URB. CALERA DE LA MERCED","Avenida Angamos Este 2520, Urb Calera De La Merced, Surquillo, Lima, Perú",-12.1119908,-77.00169029999999
16676,CLÍNICA MÉDICA CAYETANO HEREDIA,LIMA,LIMA,SAN MARTIN DE PORRES,AVENIDA HONORIO DELGADO 370 INGENIERIA SMP AV. HONORIO DELGADO 370 INGENIERIA SMP SAN MARTIN DE PORRES LIMA LIMA ,"Avenida Honorio Delgado 370 Ingenieria Smp Avenida Honorio Delgado 370 Ingenieria Smp San Martin De Porres Lima Lima, San Martin De Porres, Lima, Perú",-12.0235377,-77.0560922
16840,CLOH S.A.C.,LIMA,LIMA,MIRAFLORES,AV. PASEO DE LA CASTELLANA Nº 102 - 110,"Avenida Paseo De La Castellana Nº 102, 110, Miraflores, Lima, Perú",-12.1292553,-77.00163979999999
16866,HOSPITAL NACIONAL EDGARDO REBAGLIATI MARTINS,LIMA,LIMA,JESUS MARIA,JIRON EDGARDO REBAGLIATI Nº490,"Jiron Edgardo Rebagliati Nº490, Jesus Maria, Lima, Perú",-12.0781132,-77.0403748
16870,HOSPITAL NACIONAL GUILLERMO ALMENARA IRIGOYEN,LIMA,LIMA,LA VICTORIA,AV. GRAU Nº 800,"Avenida Grau Nº 800, La Victoria, Lima, Perú",-12.058728,-77.0224793
16874,INVERCONSULT S.A.,LIMA,LIMA,SAN MIGUEL,CALLE CARLOS GONZALES 250 URB. MARANGA,"Calle Carlos Gonzales 250 Urb Maranga, San Miguel, Lima, Perú",-12.0749986,-77.0916757
16875,CLINICA SAN MARTIN,LIMA,LIMA,SAN JUAN DE LURIGANCHO,AV. PROCERES DE LA INDEPENDENCIA 576,"Avenida Proceres De La Independencia 576, San Juan De Lurigancho, Lima, Perú",-12.0224038,-77.0065068
17072,INVERSIONES MEDICAS GALENO S.A.C.,LIMA,HUAURA,HUACHO,AVENIDA AVENIDA ECHENIQUE Nº 641 - HUACHO AVENIDA ECHENIQUE Nº 641 - HUACHO HUACHO HUAURA LIMA ,"Avenida Avenida Echenique Nº 641, Huacho Avenida Echenique Nº 641, Huacho Huacho Huaura Lima, Huacho, Huaura, Perú",-11.1116174,-77.6097336
17133,INVERSIONES GENERALES SALOMON S.A.,LIMA,LIMA,SURQUILLO,CALLE VALDEMAR MOSER 501 - URB LA AURORA,"Calle Valdemar Moser 501, Urb La Aurora, Surquillo, Lima, Perú",-12.1168424,-77.00690469999999
17247,CESAR LOPEZ SILVA,LIMA,LIMA,VILLA EL SALVADOR,SECTOR IV MZ B1 LT S/N 1RA. ETAPA URB.PACHACAMAC S/N SECTOR IV MZ B1 LT S/N 1RA. ETAPA URB.PACHACAMAC VILLA EL SALVADOR LIMA LIMA ,"Sector Iv Manzana B1 Lt S/N 1Ra Etapa UrbPachacamac S/N Sector Iv Manzana B1 Lt S/N 1Ra Etapa UrbPachacamac Villa El Salvador Lima Lima, Villa El Salvador, Lima, Perú",-12.2318002,-76.9242795
17385,HOSPITAL VITARTE,LIMA,LIMA,ATE,AVENIDA NICOLAS AYLLON 5880-CARRETERA CENTRAL DISTRITO ATE PROVINCIA LIMA DEPARTAMENTO LIMA ,"Avenida Nicolas Ayllon 5880, Carretera Central Distrito Ate Provincia Lima Departamento Lima, Ate, Lima, Perú",-11.9845473,-76.80689269999999
17399,CLINICA CHORRILLOS,LIMA,LIMA,CHORRILLOS,AVENIDA AV. DEFENSORES DEL MORRO N°1201 DISTRITO CHORRILLOS PROVINCIA LIMA DEPARTAMENTO LIMA ,"Avenida Avenida Defensores Del Morro N°1201 Distrito Chorrillos Provincia Lima Departamento Lima, Chorrillos, Lima, Perú",-12.1743262,-77.0185049
17422,TAMBO VIEJO,LIMA,LIMA,CIENEGUILLA,AVENIDA AV. MANCO CAPAC S/N - ZONA A - TAMBO VIEJO-CIENEGUILLA S/N AV. MANCO CAPAC S/N - ZONA A - TAMBO VIEJO-CIENEGUILLA CIENEGUILLA LIMA LIMA ,"Avenida Avenida Manco Capac S/N, Zona A, Tambo Viejo, Cieneguilla S/N Avenida Manco Capac S/N, Cieneguilla Cieneguilla Lima Lima, Cieneguilla, Lima, Perú",-12.1111027,-76.818489
17424,HOSPITAL NACIONAL POLICIA NACIONAL DEL PERU GRAL PNP LUIS N. SAENZ.,LIMA,LIMA,JESUS MARIA,AVENIDA BRASIL CUADRA 26 S/N S/N AVENIDA BRASIL CUADRA 26 S/N MIRAFLORES LIMA LIMA ,"Avenida Brasil Cuadra 26 S/N S/N Avenida Brasil Cuadra 26 S/N Miraflores Lima Lima, Jesus Maria, Lima, Perú",-12.0761339,-77.0545015
17440,CLINICA INTERNACIONAL S.A.,LIMA,LIMA,SAN BORJA,AVENIDA GUARDIA CIVIL Nº 385 AV. GUARDIA CIVIL Nº 385 SAN BORJA LIMA LIMA ,"Avenida Guardia Civil Nº 385 Avenida Guardia Civil Nº 385 San Borja Lima Lima, San Borja, Lima, Perú",-12.0976533,-77.0118129
17468,HOSPITAL DE EMERGENCIAS PEDIATRICAS,LIMA,LIMA,LA VICTORIA,AVENIDA AV GRAU 854 - PROLONG JR HUAMANGA 147 DISTRITO LA VICTORIA PROVINCIA LIMA DEPARTAMENTO LIMA ,"Avenida Avenida Grau 854, Prolong Jiron Huamanga 147 Distrito La Victoria Provincia Lima Departamento Lima, La Victoria, Lima, Perú",-12.0583643,-77.021587
17474,CENTRO MATERNO INFANTIL SANTA LUZMILA II,LIMA,LIMA,COMAS,AVENIDA AV. 22 DE AGOSTO N° 1001- URB SANTA LUZMILA II ETAPA DISTRITO COMAS PROVINCIA LIMA DEPARTAMENTO LIMA ,"Avenida Avenida 22 De Agosto N° 1001, Urb Santa Luzmila Ii Etapa Distrito Comas Provincia Lima Departamento Lima, Comas, Lima, Perú",-11.9470552,-77.058989
17539,OFTALMO VISSUM SOCIEDAD ANONIMA CERRADA,LIMA,LIMA,SANTIAGO DE SURCO,AVENIDA ALFREDO BENAVIDES NÚMERO 4408 PISO 1 MANZANA G3 LOTE 2 URBANIZACIÓN VISTA ALEGRE DISTRITO SANTIAGO DE SURCO PROVINCIA LIMA DEPARTAMENTO LIMA ,"Avenida Alfredo Benavides Número 4408 Piso 1 Manzana G3 Lote 2 Urbanización Vista Alegre Distrito Santiago De Surco Provincia Lima Departamento Lima, Santiago De Surco, Lima, Perú",-12.1282723,-76.99105039999999
17560,CENTRO MEDICO MATERNO INFANTIL SANCHEZ,LIMA,LIMA,SAN JUAN DE LURIGANCHO,AVENIDA AV. LOS AMELOS 1725 - URB. SAN HILARION DISTRITO SAN JUAN DE LURIGANCHO PROVINCIA LIMA DEPARTAMENTO LIMA ,"Avenida Avenida Los Amelos 1725, Urb San Hilarion Distrito San Juan De Lurigancho Provincia Lima Departamento Lima, San Juan De Lurigancho, Lima, Perú",-11.9952066,-77.01442660000001
17827,HOSPITAL CHANCAY Y SERVICIOS BASICOS DE SALUD,LIMA,HUARAL,CHANCAY,JIRÓN JR. . SUCRE S/N NÚMERO S/N DISTRITO CHANCAY PROVINCIA HUARAL DEPARTAMENTO LIMA ,"Jirón Jiron  Sucre S/N Número S/N Distrito Chancay Provincia Huaral Departamento Lima, Chancay, Huaral, Perú",-11.5666572,-77.2685791
17905,HOSPITAL NACIONAL CAYETANO HEREDIA,LIMA,LIMA,SAN MARTIN DE PORRES,AVENIDA AV. HONORIO DELGADO 262 URB. INGENIERIA AV. HONORIO DELGADO 262 URB. INGENIERIA SAN MARTIN DE PORRES LIMA LIMA ,"Avenida Avenida Honorio Delgado 262 Urb Ingenieria Avenida Honorio Delgado 262 Urb Ingenieria San Martin De Porres Lima Lima, San Martin De Porres, Lima, Perú",-12.0214115,-77.0548161
18115,CLINICA LOS ANDES SAC,LIMA,LIMA,MIRAFLORES,CALLE CALLE ASUNCION Nº 177 DISTRITO MIRAFLORES PROVINCIA LIMA DEPARTAMENTO LIMA ,"Calle Calle Asuncion Nº 177 Distrito Miraflores Provincia Lima Departamento Lima, Miraflores, Lima, Perú",-12.1048524,-77.0321134
18320,CENTRO MATERNO INFANTIL LAURA RODRIGUEZ,LIMA,LIMA,COMAS,CALLE CALLE 30 N° 150 (ANTES MZ R1 LOTE 2- PARCELA A) URB. EL PINAR DISTRITO COMAS PROVINCIA LIMA DEPARTAMENTO LIMA ,"Calle Calle 30 N° 150 Urb El Pinar Distrito Comas Provincia Lima Departamento Lima, Comas, Lima, Perú",-11.9159302,-77.0555911
18800,INSTITUTO NACIONAL DE SALUD NIÑO SAN BORJA,LIMA,LIMA,SAN BORJA,AVENIDA AV LA ROSA TORO 1250 URB JACARANDA II DISTRITO SAN BORJA PROVINCIA LIMA DEPARTAMENTO LIMA ,"Avenida Avenida La Rosa Toro 1250 Urb Jacaranda Ii Distrito San Borja Provincia Lima Departamento Lima, San Borja, Lima, Perú",-12.0743782,-76.99334730000001
18804,CLINICA SANTA BEATRIZ,LIMA,LIMA,JESUS MARIA,JIRÓN JR. RAMON DAGNINO Nº 227 JR. RAMON DAGNINO Nº 227 JESUS MARIA LIMA LIMA ,"Jirón Jiron Ramon Dagnino Nº 227 Jiron Ramon Dagnino Nº 227 Jesus Maria Lima Lima, Jesus Maria, Lima, Perú",-12.0714932,-77.0375642
18826,CLINICA SAN VICENTE S.A.,LIMA,LIMA,SAN MARTIN DE PORRES,AVENIDA AV PERÚ 3220 AV PERÚ 3220 SAN MARTIN DE PORRES LIMA LIMA ,"Avenida Avenida Perú 3220 Avenida Perú 3220 San Martin De Porres Lima Lima, San Martin De Porres, Lima",-12.0311648,-77.08157940000001
18827,HOSPITAL SAN JUAN DE MATUCANA,LIMA,HUAROCHIRI,MATUCANA,AVENIDA AV FLORIDA S/N -COSTADO DE LA UGEL NÚMERO S/N DISTRITO MATUCANA PROVINCIA HUAROCHIRI DEPARTAMENTO LIMA ,"Avenida Avenida Florida S/N, Costado De La Ugel Número S/N Distrito Matucana Provincia Huarochiri Departamento Lima, Matucana, Huarochiri, Perú",-11.8407317,-76.37964529999999
18845,HOSPITAL DE EMERGENCIAS JOSE CASIMIRO ULLOA,LIMA,LIMA,MIRAFLORES,AVENIDA AV. ROOSVELT N° 6355 (EX AV. REPUBLICA DE PANAMA) AV. ROOSVELT N° 6355 (EX AV. REPUBLICA DE PANAMA) MIRAFLORES LIMA LIMA ,"Avenida Avenida Roosvelt N° 6355 Avenida Roosvelt N° 6355 Miraflores Lima Lima, Miraflores, Lima, Perú",-12.1287621,-77.0178966
19004,CLINICA GOOD HOPE,LIMA,LIMA,MIRAFLORES,"AVENIDA AV. MALECON BALTA N° 956, 934, 944 Y AV. GRAU N° 755 DISTRITO MIRAFLORES PROVINCIA LIMA DEPARTAMENTO LIMA ","Avenida Avenida Malecon Balta N° 956, 934, 944 Y Avenida Grau N° 755 Distrito Miraflores Provincia Lima Departamento Lima, Miraflores, Lima, Perú",-12.1256637,-77.0345213
19139,CLINICA JESUS DEL NORTE,LIMA,LIMA,INDEPENDENCIA,AVENIDA AVENIDA CARLOS IZAGUIRRE 153 DISTRITO INDEPENDENCIA PROVINCIA LIMA DEPARTAMENTO LIMA ,"Avenida Avenida Carlos Izaguirre 153 Distrito Independencia Provincia Lima Departamento Lima, Independencia, Lima, Perú",-11.9899976,-77.0628581
19389,HOSPITAL DE APOYO SANTA ROSA,LIMA,LIMA,PUEBLO LIBRE,AV. BOLIVAR S/N CUADRA 8,"Avenida Bolivar S/N Cuadra 8, Pueblo Libre, Lima, Perú",-12.0724072,-77.0658263
19481,RICARDO PALMA,LIMA,HUAROCHIRI,RICARDO PALMA,AVENIDA AV. ALAMEDA GRAU Nº 103 DISTRITO RICARDO PALMA PROVINCIA HUAROCHIRI DEPARTAMENTO LIMA ,"Avenida Avenida Alameda Grau Nº 103 Distrito Ricardo Palma Provincia Huarochiri Departamento Lima, Ricardo Palma, Huarochiri, Perú",-11.9239743,-76.66004149999999
19558,CLINICA SAN PABLO,LIMA,LIMA,SANTIAGO DE SURCO,CALLE CALLE LA CONQUISTA 145-URB. EL DERBY DE MONTERRICO DISTRITO SANTIAGO DE SURCO PROVINCIA LIMA DEPARTAMENTO LIMA ,"Calle Calle La Conquista 145, Urb El Derby De Monterrico Distrito Santiago De Surco Provincia Lima Departamento Lima, Santiago De Surco, Lima, Perú",-12.0991505,-76.9712145
19608,CENTRO MEDICO ESPECIALIZADO VIRGEN DE LAS MERCEDES E.I.R.L,LIMA,LIMA,VILLA MARIA DEL TRIUNFO,"OTROS COMITE 22-C, MZA ""A"", LOTE 01, URB.NUEVA ESPERANZA VMT. COMITE 22-C, MZA ""A"", LOTE 01, URB.NUEVA ESPERANZA VMT. VILLA MARIA DEL TRIUNFO LIMA LIMA ","Otros Comite 22, C, Mza ""A"", Lote 01, UrbNueva Esperanza Vmt Comite 22, UrbNueva Esperanza Vmt Villa Maria Del Triunfo Lima Lima, Villa Maria Del Triunfo, Lima, Perú",-12.1777436,-76.9314168
19618,TG LASER OFTALMICA S.A.,LIMA,LIMA,SAN ISIDRO,AVENIDA Dos de Mayo N° 646-666 DISTRITO SAN ISIDRO PROVINCIA LIMA DEPARTAMENTO LIMA ,"Avenida Dos De Mayo N° 646, 666 Distrito San Isidro Provincia Lima Departamento Lima, San Isidro, Lima, Perú",-12.0911125,-77.0383511
19870,HOSPITAL DE EMERGENCIAS VILLA EL SALVADOR,LIMA,LIMA,VILLA EL SALVADOR,AVENIDA PASTOR SEVILLA NÚMERO 000 DISTRITO VILLA EL SALVADOR PROVINCIA LIMA DEPARTAMENTO LIMA ,"Avenida Pastor Sevilla Número 000 Distrito Villa El Salvador Provincia Lima Departamento Lima, Villa El Salvador, Lima, Perú",-12.2402221,-76.927717
19891,HOSPITAL NACIONAL DOCENTE MADRE NIÑO SAN BARTOLOME,LIMA,LIMA,LIMA,AVENIDA AV ALFONSO UGARTE Nº 825 LIMA CERCADO AV ALFONSO UGARTE Nº 825 LIMA CERCADO LIMA LIMA LIMA ,"Avenida Avenida Alfonso Ugarte Nº 825 Lima Cercado Avenida Alfonso Ugarte Nº 825 Lima Cercado Lima Lima Lima, Lima, Perú",-12.0497615,-77.0420353
19949,NIUVIDA,LIMA,LIMA,LINCE,CALLE Francisco Masias NÚMERO 2832 DISTRITO LINCE PROVINCIA LIMA DEPARTAMENTO LIMA ,"Calle Francisco Masias Número 2832 Distrito Lince Provincia Lima Departamento Lima, Lince, Lima, Perú",-12.0906445,-77.0261531
20248,OFTALMOSALUD,LIMA,LIMA,LOS OLIVOS,AVENIDA CARLOS ALBERTO IZAGUIRRE 1250 K 11-20 ANGELICA GAMARRA LEON VELARDE I ETAPA LOS OLIVOS LIMA LIMA ,"Avenida Carlos Alberto Izaguirre 1250 K 11, 20 Angelica Gamarra Leon Velarde I Etapa Los Olivos Lima Lima, Los Olivos, Lima, Perú",-11.9912187,-77.07723349999999
20264,CLINICA SAN GABRIEL S.A.C.,LIMA,LIMA,SAN MIGUEL,AVENIDA AV. LA MARINA 2945-2949-2955-2965 MARANGA- SAN MIGUEL DISTRITO SAN MIGUEL PROVINCIA LIMA DEPARTAMENTO LIMA ,"Avenida Avenida La Marina 2945, 2949, 2955, 2965 Maranga, San Miguel Distrito San Miguel Provincia Lima Departamento Lima, San Miguel, Lima, Perú",-12.0767482,-77.09537510000001
20364,CENTRO DE SALUD FAP LAS PALMAS,LIMA,LIMA,SANTIAGO DE SURCO,AVENIDA AV. JORGE CHAVEZ S/N BASE AEREA LAS PALMAS NÚMERO S/N DISTRITO SANTIAGO DE SURCO PROVINCIA LIMA DEPARTAMENTO LIMA ,"Avenida Avenida Jorge Chavez S/N Base Aerea Las Palmas Número S/N Distrito Santiago De Surco Provincia Lima Departamento Lima, Santiago De Surco, Lima, Perú",-12.1582362,-77.0003067
20387,HOGAR CLINICA SAN JUAN DE DIOS,LIMA,LIMA,SAN LUIS,AVENIDA NICOLÁS ARRIOLA 3250 AV. NICOLÁS ARRIOLA 3250 SAN LUIS LIMA LIMA ,"Avenida Nicolás Arriola 3250 Avenida Nicolás Arriola 3250 San Luis Lima Lima, San Luis, Lima, Perú",-12.06559,-76.9895889
20423,CLINICA SANTA JULIA  S.A.C.,LIMA,LIMA,LA MOLINA,AVENIDA AVENIDA JAVIER PRADO ESTE N° 7118 URB. COVIMA DISTRITO LA MOLINA PROVINCIA LIMA DEPARTAMENTO LIMA ,"Avenida Avenida Javier Prado Este N° 7118 Urb Covima Distrito La Molina Provincia Lima Departamento Lima, La Molina, Lima, Perú",-12.06584,-76.9413538
20450,EL PROGRESO,LIMA,LIMA,CARABAYLLO,AVENIDA AV. TUPAC AMARU Nº 2950 (KM 22) DISTRITO CARABAYLLO PROVINCIA LIMA DEPARTAMENTO LIMA ,"Avenida Avenida Tupac Amaru Nº 2950 Distrito Carabayllo Provincia Lima Departamento Lima, Carabayllo, Lima, Perú",-11.8783013,-77.01817799999999
20510,CLINICA DE OJOS VISUAL OPHTHALMICS,LIMA,LIMA,PUEBLO LIBRE,AVENIDA AV GENERAL JOSE MARIA EGUSQUIZA NÚMERO 835 DISTRITO PUEBLO LIBRE PROVINCIA LIMA DEPARTAMENTO LIMA ,"Avenida Avenida General Jose Maria Egusquiza Número 835 Distrito Pueblo Libre Provincia Lima Departamento Lima, Pueblo Libre, Lima, Perú",-12.0742639,-77.06232709999999
20633,EJERCITO PERUANO,LIMA,LIMA,CHORRILLOS,AVENIDA AV. ESCUELA MILITAR S/N S/N AV. ESCUELA MILITAR S/N CHORRILLOS LIMA LIMA ,"Avenida Avenida Escuela Militar S/N S/N Avenida Escuela Militar S/N Chorrillos Lima Lima, Chorrillos, Lima, Perú",-12.1609201,-77.0191991
20675,CLINIC NOVASALUD,LIMA,LIMA,VILLA EL SALVADOR,"PASAJE SECTOR 2, GRUPO RESIDENCIAL 10 MANZANA I LOTE 2 DISTRITO VILLA EL SALVADOR PROVINCIA LIMA DEPARTAMENTO LIMA ","Pasaje Sector 2, Grupo Residencial 10 Manzana I Lote 2 Distrito Villa El Salvador Provincia Lima Departamento Lima, Villa El Salvador, Lima, Perú",-12.2160493,-76.9416789
20739,CLINICA INTERNACIONAL S.A.,LIMA,LIMA,MIRAFLORES,JIRÓN JIRON INDEPENDENCIA Nº 1055 JIRON INDEPENDENCIA Nº 1055 MIRAFLORES LIMA LIMA ,"Jirón Jiron Independencia Nº 1055 Jiron Independencia Nº 1055 Miraflores Lima Lima, Miraflores, Lima, Perú",-12.109552,-77.0350934
20752,PROVISION 2000 SAC,LIMA,LIMA,SAN ISIDRO,AV. JOSE GALVEZ BARRENECHEA Nº 356  URB. CORPAC,"Avenida Jose Galvez Barrenechea Nº 356 Urb Corpac, San Isidro, Lima, Perú",-12.095037,-77.01338799999999
20753,CENTRAL COOPERATIVA DE SERVICIOS SERVIPERU LTDA.,LIMA,LIMA,JESUS MARIA,JR.MAXIMO ABRIL 552,"JironMaximo Abril 552, Jesus Maria, Lima, Perú",-12.0812178,-77.0572629
