,nombre,provincia,distrito,direccion,direccion_completa,latitud,longitud
0,VERONESI SOCIEDAD ANONIMA CERRADA,huaura,huacho,AVENIDA TUPAC AMARU 516 DISTRITO HUACHO PROVINCIA HUAURA DEPARTAMENTO LIMA ,"Avenida Tupac Amaru 516 Distrito Huacho Provincia Huaura Departamento Lima, Huacho, Huaura, Perú",-11.1075134,-77.597561
1,HOSPITAL MARIA AUXILIADORA,lima,sjm,CALLE MIGUEL IGLESIAS N°968,"Calle Miguel Iglesias N°968, San Juan De Miraflores, Lima, Perú",-12.1611853,-76.958399
2,CENTRO DE CIRUGIA PLASTICA S.A.C.,lima,san isidro,CALLE 32 N° 366 OFICINA 101 Y 202,"Calle 32 N° 366 Oficina 101 Y 202, San Isidro, Lima, Perú",-12.1076006,-77.01128059999999
3,CENTRO DE INVESTIGACION Y ATENCION CARDIOVASCULAR SOCIEDAD ANONIMA CERRADA,lima,san isidro,"AVENIDA AV. SALAVERRY N° 2665  2669, URB. CONTRY CLUB AV. SALAVERRY N° 2665  2669, URB. CONTRY CLUB SAN ISIDRO LIMA LIMA ","Avenida Avenida Salaverry N° 2665  2669, Urb Contry Club Avenida Salaverry N° 2665  2669, Urb Contry Club San Isidro Lima Lima, San Isidro, Lima, Perú",,
4,LA ESPERANZA DEL PERU S.A.,lima,san borja,AVENIDA AV. GUARDIA CIVIL N° 337 AV. GUARDIA CIVIL N° 337 SAN BORJA LIMA LIMA ,"Avenida Avenida Guardia Civil N° 337 Avenida Guardia Civil N° 337 San Borja Lima Lima, San Borja, Lima, Perú",-12.0976533,-77.0118129
5,NACIONAL SERGIO E. BERNALES,lima,comas,AV. TUPAC AMARU KM. 14.5,"Avenida Tupac Amaru Km 145, Comas, Lima, Perú",-11.9417251,-77.0502012
6,CLINICA CAMPOS E.I.R.LTDA.,canete,san vicente de canete,AVENIDA AV. MARISCAL OSCAR R. BENAVIDES 554 SAN VICENTE DE CAÑETE DISTRITO SAN VICENTE DE CAÑETE PROVINCIA CAÑETE DEPARTAMENTO LIMA ,"Avenida Avenida Mariscal Oscar R Benavides 554 San Vicente De Cañete Distrito San Vicente De Cañete Provincia Cañete Departamento Lima, San Vicente De Cañete, Cañete, Perú",-13.0725669,-76.3677065
7,CLINICA DE LA FAMILIA,lima,la molina,LAS CAOBAS 152 EL REMANSO,"Las Caobas 152 El Remanso, La Molina, Lima, Perú",-12.0909727,-76.9494977
8,CLINICA NUEVO SAN JUAN SAC,lima,sjl,"AV. PROCERES DE LA INDEPENDENCIA 1764, MZ. G, OOTES 10-11-20-21 - URB. LAS FLORES","Avenida Proceres De La Independencia 1764, Manzana G, Ootes 10, 11, 20, 21, Urb Las Flores, San Juan De Lurigancho, Lima, Perú",-12.0040694,-77.0066895
9,CLINICA FLEMING,lima,san borja,JIRÓN JR ALEXANDER FLEMING 103 URB SAN BORJA SUR DISTRITO SAN BORJA PROVINCIA LIMA DEPARTAMENTO LIMA ,"Jirón Jiron Alexander Fleming 103 Urb San Borja Sur Distrito San Borja Provincia Lima Departamento Lima, San Borja, Lima, Perú",-12.1017841,-77.00670029999999
10,EL PORVENIR,lima,la victoria,JR. SEBASTIÁN BARRANCA 977,"Jiron Sebastián Barranca 977, La Victoria, Lima, Perú",-12.0674889,-77.0211259
11,CLINICA SANTA MARIA DE LA VIDA,lima,sjm,"CALLE CALLE 5 S/N, AAHH REP. DEMOCRATICA ALEMANA NÚMERO S/N DISTRITO SAN JUAN DE MIRAFLORES PROVINCIA LIMA DEPARTAMENTO LIMA ","Calle Calle 5 S/N, Aahh Rep Democratica Alemana Número S/N Distrito San Juan De Miraflores Provincia Lima Departamento Lima, San Juan De Miraflores, Lima, Perú",-12.1411414,-76.9558129
12,CENTRO MATERNO INFANTIL JUAN PABLO II,lima,ves,"AV. MARIANO PASTOR  SEVILLA S/N ,SECTOR 6,GRUPO 6","Avenida Mariano Pastor Sevilla S/N, Sector 6, Grupo 6, Villa El Salvador, Lima, Perú",-12.2208463,-76.9437828
13,HOSPITAL AURELIO DIAZ UFANO Y PERAL,lima,sjl,CALLE MAJES S/N G-11 - URB. LOS PINOS,"Calle Majes S/N G, 11, Urb Los Pinos, San Juan De Lurigancho, Lima, Perú",-11.9739793,-77.0006666
14,HOSPITAL MUNICIPAL LOS OLIVOS,lima,los olivos,AVENIDA AV NARANJAL 318 LOS OLIVOS DISTRITO LOS OLIVOS PROVINCIA LIMA DEPARTAMENTO LIMA ,"Avenida Avenida Naranjal 318 Los Olivos Distrito Los Olivos Provincia Lima Departamento Lima, Los Olivos, Lima, Perú",-11.9766713,-77.06335109999999
15,CLINICA ESTETICA MONTERRICO,lima,santiago de surco,AV.JAVIER PRADO ESTE 3877.SURCO,"AvenidaJavier Prado Este 3877Surco, Santiago De Surco, Lima, Perú",-12.08377,-76.9734813
16,ONCOLOGIA S.A.C.,lima,san borja,JR. EDUARDO ORDOÑEZ Nº 215 - 219,"Jiron Eduardo Ordoñez Nº 215, 219, San Borja, Lima, Perú",-12.1056534,-77.00743849999999
17,CUYUBAMBA REINOSO JORGE LUIS,lima,lince,"AV AREQUIPA 2685 OF 301, 3ER PISO","Avenida Arequipa 2685 Of 301, 3Er Piso, Lince, Lima, Perú",-12.0904172,-77.0333557
18,CIRUGIA LAPAROSCOPICA E.I.R.LTDA,lima,lince,AVENIDA AREQUIPA  NÚMERO 2685 PISO 3 INTERIOR 301 DISTRITO LINCE PROVINCIA LIMA DEPARTAMENTO LIMA ,"Avenida Arequipa Número 2685 Piso 3 Interior 301 Distrito Lince Provincia Lima Departamento Lima, Lince, Lima, Perú",-12.0903698,-77.0333003
19,CENTRO DE SALUD MILITAR RIMAC,lima,rimac,AVENIDA AV. ELESPURU S/N FUERTE RAFAEL HOYOS RUBIO - RIMAC NÚMERO S/N DISTRITO RIMAC PROVINCIA LIMA DEPARTAMENTO LIMA ,"Avenida Avenida Elespuru S/N Fuerte Rafael Hoyos Rubio, Rimac Número S/N Distrito Rimac Provincia Lima Departamento Lima, Rimac, Lima, Perú",-12.0238444,-77.0366114
20,INSTITUTO NACIONAL MATERNO PERINATAL,lima,lima,JIRÓN JR. ANTONIO MIROQUESADA Nº 941 JR. ANTONIO MIROQUESADA Nº 941 LIMA LIMA LIMA ,"Jirón Jiron Antonio Miroquesada Nº 941 Jiron Antonio Miroquesada Nº 941 Lima Lima Lima, Lima, Perú",-12.0568513,-77.13648169999999
21,CLINICA ONCOSALUD,lima,san borja,"AVENIDA AV. GUARDIA CIVIL N°227-229 ,URB. CORPAC DISTRITO SAN BORJA PROVINCIA LIMA DEPARTAMENTO LIMA ","Avenida Avenida Guardia Civil N°227, 229, Urb Corpac Distrito San Borja Provincia Lima Departamento Lima, San Borja, Lima, Perú",-12.0904931,-77.0078025
22,DETECTA CLINICA,lima,surquillo,AVENIDA ANGAMOS ESTE N° 2688 DISTRITO SURQUILLO PROVINCIA LIMA DEPARTAMENTO LIMA ,"Avenida Angamos Este N° 2688 Distrito Surquillo Provincia Lima Departamento Lima, Surquillo, Lima, Perú",-12.111745,-76.9956488
23,ESPECIALIDADES MEDICAS UNIVERSAL S.A.,lima,san borja,JR EDUARDO ORDOÑEZ 468,"Jiron Eduardo Ordoñez 468, San Borja, Lima, Perú",-12.1055293,-77.0018027
24,TAHUANTINSUYO BAJO,lima,independencia,AVENIDA AV. CHINCHAYSUYO CUADRA 4 - URB. TAHUANTINSUYO DISTRITO INDEPENDENCIA PROVINCIA LIMA DEPARTAMENTO LIMA ,"Avenida Avenida Chinchaysuyo Cuadra 4, Urb Tahuantinsuyo Distrito Independencia Provincia Lima Departamento Lima, Independencia, Lima, Perú",-11.9797373,-77.0574515
25,LUIS ARIAS SCHEREIBER - HOSPITAL MILITAR CENTRAL,lima,jesus maria,AV FAUSTINO SANCHEZ CARRION S/N (EX. AV PERSHIN S/N),"Avenida Faustino Sanchez Carrion S/N, Jesus Maria, Lima, Perú",-12.0878765,-77.0608092
26,INSTITUTO MEDICO QUIRURGICO AREQUIPA SA,lima,lima,AV AREQUIPA 1180  SANTA BEATRIZ,"Avenida Arequipa 1180 Santa Beatriz, Lima, Perú",-12.0763197,-77.0358176
27,"CENTRO MATERNO INFANTIL DE SALUD - ""VIRGEN DEL CARMEN""",lima,chorrillos,CALLE LEOPOLDO ARIAS NRO. 200,"Calle Leopoldo Arias Nro 200, Chorrillos, Lima, Perú",-12.1660968,-77.0204961
28,JOSE CARLOS MARIATEGUI,lima,vmt,AV. PRIMAVERA CUADRA 23 S/N JOSE CARLOS MARIATEGUI,"Avenida Primavera Cuadra 23 S/N Jose Carlos Mariategui, Villa Maria Del Triunfo, Lima, Perú",-12.2289834,-76.9465232
29,INMATER,lima,san borja,AVENIDA GUARDIA CIVIL 655,"Avenida Guardia Civil 655, San Borja, Lima, Perú",-12.0962139,-77.01076739999999
30,PIRPALAP SAC,lima,lima,AVENIDA EMANCIPACION 785-791-799,"Avenida Emancipacion 785, 791, 799, Lima, Perú",-12.0448239,-77.04027119999999
31,CLINICA JAVIER PRADO,lima,san isidro,AV. JAVIER PRADO ESTE 499 URB. JARDIN LIMA- SAN ISIDRO,"Avenida Javier Prado Este 499 Urb Jardin Lima, San Isidro, Lima, Perú",-12.0910983,-77.0283573
32,KYODA Y ASOCIADOS S.A.C,lima,jesus maria,JR. DANIEL OLAECHEA 273,"Jiron Daniel Olaechea 273, Jesus Maria, Lima, Perú",-12.0854543,-77.0504057
33,CLINICA QUIRURGICA SANTA MARIA S.A.,lima,surquillo,CALLE LAS AGUILAS NO. 360 URB. LIMATAMBO,"Calle Las Aguilas No 360 Urb Limatambo, Surquillo, Lima, Perú",-12.1034121,-77.0261531
34,CENTRO DENTAL SAN JOSE E.I.R.L.,lima,san isidro,AV. LAS CAMELIAS 741-B 3ER PISO (01 CONSULTORIO),"Avenida Las Camelias 741, B 3Er Piso, San Isidro, Lima, Perú",-12.0970431,-77.03393710000002
35,OFTALMOLOGÍA INTEGRAL SAC,lima,miraflores,AV GRAU 228-248,"Avenida Grau 228, 248, Miraflores, Lima, Perú",-12.120495,-77.03508289999999
36,7,lima,san miguel,CALLE DEAN SAAVEDRA 148 MARANGA SAN MIGUEL,"Calle Dean Saavedra 148 Maranga San Miguel, San Miguel, Lima, Perú",-12.0786183,-77.090239
37,SERVICIOS MEDICOS REPROMEDIC S.A.C,lima,jesus maria,JR.MAXIMO ABRIL Nº 585 - 589,"JironMaximo Abril Nº 585, 589, Jesus Maria, Lima, Perú",-12.0824947,-77.0506092
38,HOSPITAL I MARINO MOLINA SCIPPA,lima,comas,AV. GUILLERMO DE LA FUENTE NO 515 URB. SANTA LUZMILA,"Avenida Guillermo De La Fuente No 515 Urb Santa Luzmila, Comas, Lima, Perú",-11.9438071,-77.058116
39,CLINICA SANTA ISABEL,lima,san borja,AVENIDA GUARDIA CIVIL 135 DISTRITO SAN BORJA PROVINCIA LIMA DEPARTAMENTO LIMA ,"Avenida Guardia Civil 135 Distrito San Borja Provincia Lima Departamento Lima, San Borja, Lima, Perú",-12.0894299,-77.0070575
40,MEDICINA AVANZADA S.A.,lima,jesus maria,AV. GREGORIO ESCOBEDO 560,"Avenida Gregorio Escobedo 560, Jesus Maria, Lima, Perú",-12.085356,-77.0533319
41,CENTRO DE CIRUGIA ESTETICA LAS CONDES E.I.R.L.,lima,san borja,AV. JAVIER PRADO ESTE N° 2970,"Avenida Javier Prado Este N° 2970, San Borja, Lima, Perú",-12.0871129,-76.99437379999999
42,CENTRO MÉDICO KIREI,lima,vmt,AVENIDA AVENIDA VILLA MARIA 745 DISTRITO VILLA MARIA DEL TRIUNFO PROVINCIA LIMA DEPARTAMENTO LIMA ,"Avenida Avenida Villa Maria 745 Distrito Villa Maria Del Triunfo Provincia Lima Departamento Lima, Villa Maria Del Triunfo, Lima, Perú",-12.1625968,-76.94545500000001
43,CENTRO MEDICO SAN PEDRO NORTE SA,lima,independencia,JR. 12 DE JULIO 239 URB. 12 DE JULIO LIMA,"Jiron 12 De Julio 239 Urb 12 De Julio Lima, Independencia, Lima, Perú",-12.0031225,-77.05669999999999
44,VISUALCENTER SAC,lima,san miguel,AV. ELMER FAUCETT 132    URB. MARANGA,"Avenida Elmer Faucett 132 Urb Maranga, San Miguel, Lima, Perú",-12.0732101,-77.098826
45,HOSPITAL DE LA MUJER.,lima,surquillo,AVENIDA AV MARISCAL ANDRES AVELINO CACERES 559-563 DISTRITO SURQUILLO PROVINCIA LIMA DEPARTAMENTO LIMA ,"Avenida Avenida Mariscal Andres Avelino Caceres 559, 563 Distrito Surquillo Provincia Lima Departamento Lima, Surquillo, Lima, Perú",-12.1193164,-77.01974609999999
46,POLICLINICO MILITAR CHORRILLOS,lima,chorrillos,AV: ESCUELA MILITAR S/N VILLA MILITAR OESTE,"Avenida: Escuela Militar S/N Villa Militar Oeste, Chorrillos, Lima, Perú",-12.1585812,-77.0188923
47,CENTRO DE SALUD SURQUILLO,lima,surquillo,JR. NARCISO DE LA COLINA 840,"Jiron Narciso De La Colina 840, Surquillo, Lima, Perú",-12.1270358,-76.9864779
48,CLINICAS MAISON DE SANTE SOCIEDAD ANONIMA,lima,lima,JR. MIGUEL ALJOVIN  NRO. 208 -222,"Jiron Miguel Aljovin Nro 208, 222, Lima, Perú",-12.0572232,-77.0342417
49,PROMOTORA ASISTENCIAL S.A.C CLINICA LIMA TAMBO,lima,sjl,AV. PROCERES DE LA INDEPENDENCIA 2701 - Y GANIMIDES 106 - 110,"Avenida Proceres De La Independencia 2701, Y Ganimides 106, 110, San Juan De Lurigancho, Lima, Perú",-11.986855,-77.0077168
50,SEGURO SOCIAL DE SALUD - ESSALUD,lima,santa anita,"AVENIDA AV. CARRETERA CENTRAL 1345, KM. 3.5 DISTRITO JESUS MARIA PROVINCIA LIMA DEPARTAMENTO LIMA ","Avenida Avenida Carretera Central 1345, Km 35 Distrito Jesus Maria Provincia Lima Departamento Lima, Santa Anita, Lima, Perú",-12.0504369,-76.9546735
51,CLÍNICA INTERNACIONAL,lima,san borja,AVENIDA GUARDIA CIVIL MANZANA. A-4 LOTE 2 Y 3 URB. CÓRPAC AV. GUARDIA CIVIL MANZANA. A-4 LOTE 2 Y 3 URB. CÓRPAC LIMA LIMA LIMA ,"Avenida Guardia Civil Manzana A, 4 Lote 2 Y 3 Urb Córpac Avenida Guardia Civil Manzana A, 4 Lote 2 Y 3 Urb Córpac Lima Lima Lima, San Borja, Lima, Perú",-12.0983551,-76.9620498
52,GRUPO SALUD,lima,chorrillos,JR. INDEPENDENCIA 242,"Jiron Independencia 242, Chorrillos, Lima, Perú",-12.1559091,-77.0218838
53,ESPECIALIDADES MÉDICAS QUIRÚRGICAS SAN BORJA,lima,san borja,AVENIDA SAN BORJA SUR NÚMERO 285 DISTRITO SAN BORJA PROVINCIA LIMA DEPARTAMENTO LIMA ,"Avenida San Borja Sur Número 285 Distrito San Borja Provincia Lima Departamento Lima, San Borja, Lima, Perú",-12.1003647,-77.0079329
54,FRANCISCO ASTOCONDOR SALAZAR,lima,san borja,AV. BOULEVARD Nº 610,"Avenida Boulevard Nº 610, San Borja, Lima, Perú",-12.0644393,-76.96804970000001
55,BRITISH AMERICAN HOSPITAL S.A,lima,san isidro,CALLE ALFREDO SALAZAR Nº 350,"Calle Alfredo Salazar Nº 350, San Isidro, Lima, Perú",-12.1091258,-77.0394047
56,CLINICA SANTA MARIA DEL SUR,lima,sjm,AV. BELISARIO SUAREZ 998,"Avenida Belisario Suarez 998, San Juan De Miraflores, Lima, Perú",-12.1630853,-76.96525120000001
57,CLÍNICA PERUANA DE LA VISION,lima,jesus maria,JIRÓN MAYTA CAPAC NÚMERO 1398 DISTRITO JESUS MARIA PROVINCIA LIMA DEPARTAMENTO LIMA ,"Jirón Mayta Capac Número 1398 Distrito Jesus Maria Provincia Lima Departamento Lima, Jesus Maria, Lima, Perú",-12.0764074,-77.04258039999999
58,INSTITUTO DEL CEREBRO Y LA COLUMNA VERTEBRAL,lima,miraflores,AV. ALFREDO BENAVIDES 2965,"Avenida Alfredo Benavides 2965, Miraflores, Lima, Perú",-12.1281698,-77.0043948
59,CONSULTORIO FEMENINO OBSTETRICO MI BEBE Y YO,lima,ves,SECTOR 1/GRUPO 7 /MANZANA M/LOTE 1 VILLA EL SALVADOR,"Sector 1/Grupo 7 /Manzana M/Lote 1 Villa El Salvador, Villa El Salvador, Lima, Perú",-12.2165935,-76.9312468
60,CLINICA MATERNO INF. VIRGEN DEL ROSARIO S.R.L.,lima,magdalena del mar,JR. CASTILLA N° 976,"Jiron Castilla N° 976, Magdalena Del Mar, Lima, Perú",-12.0878246,-77.0721185
61,CLINICA MONTEFIORI,lima,la molina,"AV. SEPARADORA INDUSTRIAL Nº 1818-1820 (ANTES 380-390) MZ. A1. LT 17-24, URB. CACTUS","Avenida Separadora Industrial Nº 1818, 1820 Manzana A1 Lt 17, 24, Urb Cactus, La Molina, Lima, Perú",-12.0653713,-76.9661363
62,CLINICA SAN BARTOLOME,lima,los olivos,AVENIDA AV. CARLOS ALBERTO IZAGUIRRE N° 1142 URB. COVIDA III ETAPA MZ A LT 16 DISTRITO LOS OLIVOS PROVINCIA LIMA DEPARTAMENTO LIMA ,"Avenida Avenida Carlos Alberto Izaguirre N° 1142 Urb Covida Iii Etapa Manzana A Lt 16 Distrito Los Olivos Provincia Lima Departamento Lima, Los Olivos, Lima, Perú",-11.9913413,-77.075835
63,INSTITUTOS OFTALMOLOGICOS ESPECIALIZADOS DR. CARLOS WONG CAM S.A.C.,lima,san isidro,"AVENIDA AV. GUARDIA CIVIL 554, CORPAC, SAN ISIDRO AV. GUARDIA CIVIL 554, CORPAC, SAN ISIDRO SAN ISIDRO LIMA LIMA ","Avenida Avenida Guardia Civil 554, Corpac, San Isidro Avenida Guardia Civil 554, San Isidro San Isidro Lima Lima, San Isidro, Lima, Perú",-12.0946178,-77.0105312
64,CLINICA RICARDO PALMA,lima,san isidro,AV. JAVIER PRADO ESTE 1066,"Avenida Javier Prado Este 1066, San Isidro, Lima, Perú",-12.0906435,-77.018258
65,CLINICA MONTE SINAI,lima,lince,JIRÓN JR. GARCILASO DE LA VEGA 1799 DISTRITO LINCE PROVINCIA LIMA DEPARTAMENTO LIMA ,"Jirón Jiron Garcilaso De La Vega 1799 Distrito Lince Provincia Lima Departamento Lima, Lince, Lima, Perú",-12.0830866,-77.0406478
66,CLINICA MADRE ZORAIDA,lima,lurigancho,JIRÓN ESQUINA DE JR. CHUCUITO Y JR. TRUJILLO SUR S/N NÚMERO S/N DISTRITO LURIGANCHO PROVINCIA LIMA DEPARTAMENTO LIMA ,"Jirón Esquina De Jiron Chucuito Y Jiron Trujillo Sur S/N Número S/N Distrito Lurigancho Provincia Lima Departamento Lima, Lurigancho, Lima, Perú",-11.9387227,-76.699213
67,CLINICA LIMATAMBO,lima,san isidro,AVENIDA AV. REPUBLICA DE PANAMA 3606 DISTRITO SAN ISIDRO PROVINCIA LIMA DEPARTAMENTO LIMA ,"Avenida Avenida Republica De Panama 3606 Distrito San Isidro Provincia Lima Departamento Lima, San Isidro, Lima, Perú",-12.1006332,-77.0194887
68,INSTITUTO NACIONAL DE CIENCIAS NEUROLOGICAS,lima,lima,JR. ANCASH 1271 - LIMA,"Jiron Ancash 1271, Lima, Perú",-12.0460056,-77.0157612
69,CLINICA EL GOLF,lima,san isidro,AVENIDA AV AURELIO MIROQUESADA 1030 DISTRITO SAN ISIDRO PROVINCIA LIMA DEPARTAMENTO LIMA ,"Avenida Avenida Aurelio Miroquesada 1030 Distrito San Isidro Provincia Lima Departamento Lima, San Isidro, Lima, Perú",-12.0986172,-77.0517351
70,CLINICA MONTELUZ,lima,puente piedra,AVENIDA AV. BUENOS AIRES Nº 2307 DISTRITO PUENTE PIEDRA PROVINCIA LIMA DEPARTAMENTO LIMA ,"Avenida Avenida Buenos Aires Nº 2307 Distrito Puente Piedra Provincia Lima Departamento Lima, Puente Piedra, Lima, Perú",-11.8476995,-77.098315
71,CLINICA MONTE SINAI EIRL,lima,lurigancho,AV. LIMA NORTE 295 - CHOSICA,"Avenida Lima Norte 295, Chosica, Lurigancho, Lima, Perú",-11.9208672,-76.67578499999999
72,LIGA CONTRA EL CÁNCER,lima,pueblo libre,AVENIDA AVENIDA BRASIL 2746 DISTRITO PUEBLO LIBRE PROVINCIA LIMA DEPARTAMENTO LIMA ,"Avenida Avenida Brasil 2746 Distrito Pueblo Libre Provincia Lima Departamento Lima, Pueblo Libre, Lima, Perú",-12.0847639,-77.06212409999999
73,SERVICIOS DE SALUD GUADALUPE SAC.,lima,chorrillos,"AV. DEFENSORES DEL MORRO N° 285, URB. CHORRILLOS","Avenida Defensores Del Morro N° 285, Urb Chorrillos, Chorrillos, Lima, Perú",-12.1671043,-77.0258817
74,CLINICA PRINCIPE S.A.C.,lima,lince,AV. AREQUIPA N° 1800,"Avenida Arequipa N° 1800, Lince, Lima, Perú",-12.0826096,-77.034936
75,BUENOS AIRES DE VILLA,lima,chorrillos,AV. BUENOS AIRES DE VILLA S/N.,"Avenida Buenos Aires De Villa S/N, Chorrillos, Lima, Perú",-12.1869719,-77.0010266
76,VESALIO S.A.,lima,san borja,CALLE JOSEPH THOMPSON N° 140 - URB. SANTO TOMAS,"Calle Joseph Thompson N° 140, Urb Santo Tomas, San Borja, Lima, Perú",-12.1063524,-77.0074155
77,CLINICA GONZALEZ S.A.,lima,lince,AVENIDA IGNACIO MERINO 1884,"Avenida Ignacio Merino 1884, Lince, Lima, Perú",-12.0830074,-77.03283239999999
78,CLINICA MARIA DEL SOCORRO,lima,ate,CALLE MZ J LOTE 3-A CALLE APURIMAC 116 URB. TILDA MZ J LOTE 3-A CALLE APURIMAC 116 URB. TILDA ATE LIMA LIMA ,"Calle Manzana J Lote 3, A Calle Apurimac 116 Urb Tilda Manzana J Lote 3, A Calle Apurimac 116 Urb Tilda Ate Lima Lima, Ate, Lima, Perú",-12.0319972,-76.9355654
79,ASOCIACION PRO VIDA PADRE BRUNO TRAVERSO,lima,chorrillos,CALLE JUSTO NAVEDA 371,"Calle Justo Naveda 371, Chorrillos, Lima, Perú",-12.1719552,-77.0245449
80,PIEDRA LIZA,lima,rimac,AV. SANTA ROSA S/N - BARRIO FISCAL PIEDRA LIZA,"Avenida Santa Rosa S/N, Barrio Fiscal Piedra Liza, Rimac, Lima, Perú",-12.0394122,-77.0172979
81,RED DE SALUD CLINICA S.A.C.,lima,lince,AV. AREQUIPA 2449 - 2469 - 2491,"Avenida Arequipa 2449, 2469, 2491, Lince, Lima, Perú",-12.0883881,-77.0333898
82,ESPECIALIZADO DE SALUD MENTAL HONORIO DELGADO-HIDEYO NOGUCHI,lima,smp,JR. ELOY ESPINOZA SALDAÑA 709 - URB. PALAO,"Jiron Eloy Espinoza Saldaña 709, Urb Palao, San Martin De Porres, Lima, Perú",-12.021556,-77.0611575
83,CLINICA RENACER,lima,miraflores,CALLE CALLE CORONEL INCLAN N° 986 DISTRITO MIRAFLORES PROVINCIA LIMA DEPARTAMENTO LIMA ,"Calle Calle Coronel Inclan N° 986 Distrito Miraflores Provincia Lima Departamento Lima, Miraflores, Lima, Perú",-12.1098144,-77.0313305
84,SEGURO SOCIAL DE SALUD,lima,santa anita,CARRETERA CENTRAL KM. 3.5 Nº 1351,"Carretera Central Km 35 Nº 1351, Santa Anita, Lima, Perú",-12.0504369,-76.9546735
85,CLINICA DIVINO NIÑO JESUS - ORDEN DE MALTA,lima,sjm,JR ISMAEL ESCOBAR 329,"Jiron Ismael Escobar 329, San Juan De Miraflores, Lima, Perú",-12.1484599,-76.9769495
86,ASOCIACION SAN CRISTOBAL DEL NORTE,lima,puente piedra,AV. ANCON MZ-J LT-2 EL ARENAL,"Avenida Ancon Manzana, J Lt, 2 El Arenal, Puente Piedra, Lima, Perú",-11.8303523,-77.1152493
87,CENTRO DE EMERGENCIAS SAN PEDRO DE LOS CHORRILLOS,lima,chorrillos,CALLE FERROCARRIL S/N,"Calle Ferrocarril S/N, Chorrillos, Lima, Perú",-12.2101327,-76.9036262
88,ASTOCONDOR SALAZAR EPIFANIO FRANCISCO,lima,san borja,AV BOULEVARD 610 1ER PISO Y SOTANO,"Avenida Boulevard 610 1Er Piso Y Sotano, San Borja, Lima, Perú",-12.0644393,-76.96804970000001
89,CENTRO MEDICO CASAPALCA,huarochiri,chicla,"CENTRO MINERO CASAPALCA, CARRETERA CENTRAL KM 116","Centro Minero Casapalca, Carretera Central Km 116, Chicla, Huarochiri, Perú",-11.6524968,-76.2399344
90,CENTRO MEDICO AVENDAÑO S.A.C.,lima,miraflores,CALLE CALLE LEONIDAS AVENDAÑO Nº 116 DISTRITO MIRAFLORES PROVINCIA LIMA DEPARTAMENTO LIMA ,"Calle Calle Leonidas Avendaño Nº 116 Distrito Miraflores Provincia Lima Departamento Lima, Miraflores, Lima, Perú",-12.1311584,-77.0245312
91,OFTALMOSALUD,lima,san isidro,AVENIDA AV. JAVIER PRADO ESTE N° 1142 DISTRITO SAN ISIDRO PROVINCIA LIMA DEPARTAMENTO LIMA ,"Avenida Avenida Javier Prado Este N° 1142 Distrito San Isidro Provincia Lima Departamento Lima, San Isidro, Lima, Perú",-12.0903547,-77.0171178
92,MILENE SALUD EIRL,lima,puente piedra,AV. SAENZ PEÑA 625,"Avenida Saenz Peña 625, Puente Piedra, Lima, Perú",-11.8624827,-77.08036709999999
93,CLINICA SAN FELIPE S.A.,lima,jesus maria,AV. GREGORIO ESCOBEDO N° 650,"Avenida Gregorio Escobedo N° 650, Jesus Maria, Lima, Perú",-12.0859528,-77.05429339999999
94,OFTALMOLOGOS CONTRERAS CAMPOS SOC. CIVIL,lima,san isidro,"AV. JAVIER PRADO ESTE Nº 1010, 10MO. PISO, URB EL PALOMAR","Avenida Javier Prado Este Nº 1010, 10Mo Piso, Urb El Palomar, San Isidro, Lima, Perú",-12.0905902,-77.0180876
95,CLINICA MAISON DE SANTE DEL ESTE,lima,santiago de surco,"AV. PROLONGACION ALFREDO BENAVIDES 5362 URB. LAS GARDENIAS, SANTIAGO DE SURCO","Avenida Prolongacion Alfredo Benavides 5362 Urb Las Gardenias, Santiago De Surco, Lima, Perú",-12.130404,-76.9810759
96,CLINICA MORILLAS S.A.,lima,santiago de surco,AVENIDA EL POLO 545 URBANIZACION EL DERBY,"Avenida El Polo 545 Urbanizacion El Derby, Santiago De Surco, Lima, Perú",-12.1029854,-76.9728931
97,CLINICA PAULISTA DEL PERU S.A.C,lima,santiago de surco,AV. AVIACION NRO. 4786   - SANTIAGO DE SURCO,"Avenida Aviacion Nro 4786, Santiago De Surco, Lima, Perú",-12.1237169,-76.9992829
98,GUILLERMO KAELIN  DE LA FUENTE,lima,vmt,AVENIDA PP.JJ. NUEVA ESPERANZA MZ 1B SUBLOTE 1 PABELLON 1 CRUCE AV. 26 DE NOVIEMBRE C/ AV DEFENSORES DE LIMA PP.JJ. NUEVA ESPERANZA MZ 1B SUBLOTE 1 PABELLON 1 CRUCE AV. 26 DE NOVIEMBRE C/ AV DEFENSORES DE LIMA VILLA MARIA DEL TRIUNFO LIMA LIMA ,"Avenida PpJj Nueva Esperanza Manzana 1B Sublote 1 Pabellon 1 Cruce Avenida 26 De Noviembre C/ Avenida Defensores De Lima PpJj Nueva Esperanza Manzana 1B Sublote 1 Pabellon 1 Cruce Avenida 26 De Noviembre C/ Avenida Defensores De Lima Villa Maria Del Triunfo Lima Lima, Villa Maria Del Triunfo, Lima, Perú",-12.1746747,-76.93405729999999
99,INSTITUTO NEURO CARDIOVASCULAR DE LAS AMERICAS S.A.C.,lima,miraflores,AVENIDA 28 DE JULIO  1331 AVENIDA 28 DE JULIO  1331 MIRAFLORES LIMA LIMA ,"Avenida 28 De Julio 1331 Avenida 28 De Julio 1331 Miraflores Lima Lima, Miraflores, Lima, Perú",-12.1302876,-77.0193117
100,CLINICA CONTINENTAL,lima,san borja,AV. SAN BORJA SUR N° 526,"Avenida San Borja Sur N° 526, San Borja, Lima, Perú",-12.1014993,-77.00363480000001
101,CORNELIO ACUÑA ROSA MARIA,lima,comas,"PJ. MARIANO MELGAR Nº 164, 1ER. 2DO,3ER. Y 4TO PISO, URB LA PASCANA","Pj Mariano Melgar Nº 164, 1Er 2Do, 3Er Y 4To Piso, Urb La Pascana, Comas, Lima, Perú",-11.9316769,-77.05240409999999
102,CONSULTORIOS SAN JUAN,lima,smp,"JR: FORTUNATO HERRERA 3883, URB. CONDEVILLA SEÑOR, SAN MARTIN DE PORRES","Jiron: Fortunato Herrera 3883, Urb Condevilla Señor, San Martin De Porres, Lima, Perú",-12.0212947,-77.08773819999999
103,HOSPITAL DE BARRANCA,barranca,barranca,AV. NICOLAS DE PIEROLA 210 -224,"Avenida Nicolas De Pierola 210, 224, Barranca, Perú",-10.7542777,-77.7641453
104,CENTRO DE SALUD MATERNO INFANTIL ANCON,lima,ancon,JR. LOA 595 ANCON,"Jiron Loa 595 Ancon, Ancon, Lima, Perú",-11.7745146,-77.17282399999999
105,SERVICIOS Y PROMOCIONES DE SALUD S.A.C.,lima,san isidro,CALLE LOS OLIVOS N° 364,"Calle Los Olivos N° 364, San Isidro, Lima, Perú",-12.0933871,-77.0353191
106,OFTALMEDICA SUR S.A.C.,lima,santiago de surco,"AV. LA ENCALADA N° 923, URB. CENTRO COMERCIAL MONTERRICO","Avenida La Encalada N° 923, Urb Centro Comercial Monterrico, Santiago De Surco, Lima, Perú",-12.1065131,-76.9716597
107,MAGDALENA,lima,magdalena del mar,JR. JUNÍN 322,"Jiron Junín 322, Magdalena Del Mar, Lima, Perú",-12.0886131,-77.0684419
108,CLINICA MAISON DE SANTE DEL SUR,lima,chorrillos,"AV. CHORRILLOS 171 - 173, CHORRILLOS","Avenida Chorrillos 171, 173, Chorrillos, Lima, Perú",-12.1571816,-77.0227792
109,GROUP CORPORACION G & R S.A.C.,lima,los olivos,JR. LOS JAZMINES N° 122 URB. PRIMAVERA - LOS OLIVOS,"Jiron Los Jazmines N° 122 Urb Primavera, Los Olivos, Lima, Perú",-12.0088658,-77.0757818
110,NORVISION SAC,lima,pueblo libre,AV.PASO DE LOS ANDES 850 PUEBLO LIBRE,"AvenidaPaso De Los Andes 850 Pueblo Libre, Pueblo Libre, Lima, Perú",-12.0710325,-77.05872939999999
111,CLAS JUAN PABLO II,lima,los olivos,CALLE 28 S/N AA.HH. JUAN PABLO II,"Calle 28 S/N AaHh Juan Pablo Ii, Los Olivos, Lima, Perú",-11.9444509,-77.0769059
112,CLINICA DE OSTEOPOROSIS Y ESPECIALIDADES,lima,miraflores,AVENIDA AV. BENAVIDES # 2951 MIRAFLORES AV. BENAVIDES # 2951 MIRAFLORES MIRAFLORES LIMA LIMA ,"Avenida Avenida Benavides # 2951 Miraflores Avenida Benavides # 2951 Miraflores Miraflores Lima Lima, Miraflores, Lima, Perú",-12.1282076,-77.004543
113,HOSPITAL II RAMÓN CASTILLA,lima,lima,JIRÓN JIRÓN GUILLERMO DANSEY Nº 390 JIRÓN GUILLERMO DANSEY Nº 390 LIMA LIMA LIMA ,"Jirón Jirón Guillermo Dansey Nº 390 Jirón Guillermo Dansey Nº 390 Lima Lima Lima, Lima, Perú",-12.0455732,-77.0409767
114,CLINICAS SAN BERNARDO S.A.,lima,pueblo libre,CALLE CALLE SAN  JOSE 161 DISTRITO PUEBLO LIBRE PROVINCIA LIMA DEPARTAMENTO LIMA ,"Calle Calle San Jose 161 Distrito Pueblo Libre Provincia Lima Departamento Lima, Pueblo Libre, Lima, Perú",-12.1767983,-77.02167539999999
115,HOSPITAL III EMERGENCIAS GRAU,lima,lima,AVENIDA GRAU N° 351,"Avenida Grau N° 351, Lima, Perú",-12.0587673,-77.0310788
116,CLINICA MEDICA ZEGARRA S.A.C.,lima,comas,AVENIDA AVENIDA TUPAC AMARU 1801 URB HUAQUILLAY - COMAS DISTRITO COMAS PROVINCIA LIMA DEPARTAMENTO LIMA ,"Avenida Avenida Tupac Amaru 1801 Urb Huaquillay, Comas Distrito Comas Provincia Lima Departamento Lima, Comas, Lima, Perú",-11.9455467,-77.05057719999999
117,CLINICA UNIPLAST S.A.C.,lima,san isidro,AV. GUARDIA CIVIL 618 CORPAC,"Avenida Guardia Civil 618 Corpac, San Isidro, Lima, Perú",-12.095449,-77.01100360000001
118,SERV.MED.ESPECIALIZADOS OFTALMIC SERVICE,lima,san borja,AV. GEMINIS H-17 URB PAPA JUAN XXIII,"Avenida Geminis H, 17 Urb Papa Juan Xxiii, San Borja, Lima, Perú",-12.1089702,-76.9963387
119,CLINICA UNIVERSITARIA S.A.C,lima,comas,AV. UNIVERSITARIA N° 6062 Y JR. PAGADOR Nº 137 URB. SANTA LUZMILA,"Avenida Universitaria N° 6062 Y Jiron Pagador Nº 137 Urb Santa Luzmila, Comas, Lima, Perú",-11.9522075,-77.0595398
120,NACIONAL  DOS DE MAYO,lima,lima,PARQUE HISTORIA DE LA MEDICINA PERUANA S/N ALTURA CUADRA 13 AV GRAU,"Parque Historia De La Medicina Peruana S/N Altura Cuadra 13 Avenida Grau, Lima",-12.0567249,-77.0174033
121,CLINICA MARIA HUARHUA E.I.R.L,lima,vmt,AV. LATINOAMERICA 200 JR CAÑETE 390 MZ 27 LT 4A SECT.VALLE BAJO 3ERA ETAPA JC MAREATEGUI SAN GABRIEL,"Avenida Latinoamerica 200 Jiron Cañete 390 Manzana 27 Lt 4A SectValle Bajo 3Era Etapa Jc Mareategui San Gabriel, Villa Maria Del Triunfo, Lima, Perú",-12.1674642,-76.9204126
122,HOSPITAL DE BAJA COMPLEJIDAD HUAYCAN,lima,ate,AV JOSÉ C.MARIÁTEGUI S/N ZONA B - A.H.HUAYCÁN,"Avenida José CMariátegui S/N Zona B, AHHuaycán, Ate, Lima, Perú",-12.0152747,-76.8222641
123,CLINICA PETRAS CIRUJANOS PLASTICOS,lima,san isidro,CALLE CALLE 6 N° 221 - URB. CORPAC DISTRITO SAN ISIDRO PROVINCIA LIMA DEPARTAMENTO LIMA ,"Calle Calle 6 N° 221, Urb Corpac Distrito San Isidro Provincia Lima Departamento Lima, San Isidro, Lima, Perú",-12.1128904,-76.9895092
124,GONZALES PINEDO RODOLFO,lima,lima,JR. ANTONIO MIROQUESADA NRO.332 - CERCADO,"Jiron Antonio Miroquesada Nro332, Cercado, Lima, Perú",-12.0708154,-76.9702897
125,CLINICA INTEGRAL DE LA MUJER S.A.C.,lima,jesus maria,AV. SAN FELIPE 1015 - 1017,"Avenida San Felipe 1015, 1017, Jesus Maria, Lima, Perú",-12.0817789,-77.04735
126,ASOCIACION PERUANO JAPONESA,lima,pueblo libre,AV. PASO DE LOS ANDES 675,"Avenida Paso De Los Andes 675, Pueblo Libre, Lima, Perú",-12.07194,-77.059
127,CLINICA SAN MIGUEL ARCANGEL S.A.C.,lima,sjl,JIRÓN JR. LAS GARDENIAS 754-760 URB. - LOS JASMINES DISTRITO SAN JUAN DE LURIGANCHO PROVINCIA LIMA DEPARTAMENTO LIMA ,"Jirón Jiron Las Gardenias 754, 760 Urb, Los Jasmines Distrito San Juan De Lurigancho Provincia Lima Departamento Lima, San Juan De Lurigancho, Lima, Perú",-11.9703388,-77.0017429
128,CLINICA MUNDO SALUD SAC,lima,los olivos,AV. CARLOS IZAGUIRRE NO 1234,"Avenida Carlos Izaguirre No 1234, Los Olivos, Lima, Perú",-11.9912852,-77.0770199
129,HOSPITAL I CARLOS ALCANTARA BUTTERFIELD,lima,la molina,AV. LOS CONSTRUCTORES 1201 - URB. COVIMA,"Avenida Los Constructores 1201, Urb Covima, La Molina, Lima, Perú",-12.0621912,-76.94554769999999
130,CLINICA DE MUJERES SAC,lima,jesus maria,AVENIDA AV FRANCISCO MARIATEGUI 1418 URB FUNDO OYAGUE AV FRANCISCO MARIATEGUI 1418 URB FUNDO OYAGUE JESUS MARIA LIMA LIMA ,"Avenida Avenida Francisco Mariategui 1418 Urb Fundo Oyague Avenida Francisco Mariategui 1418 Urb Fundo Oyague Jesus Maria Lima Lima, Jesus Maria, Lima, Perú",-12.0776238,-77.0509028
131,OCULASER CENTRO DE MICROCIRUGIA Y LASER SAC,lima,lima,AV. ARENALES 1181LIMA CERCADO,"Avenida Arenales 1181Lima Cercado, Lima, Perú",-12.076541,-77.0366037
132,LOS SUREÑOS,lima,puente piedra,COOP.  VIVIENDA LOS SUREÑOS MZ M LT. 35,"Coop Vivienda Los Sureños Manzana M Lt 35, Puente Piedra, Lima, Perú",-11.8876691,-77.069582
133,CENTRO MATERNO INFANTIL SAN JOSE,lima,ves,"AV. LOS ÁNGELES S/N, SECTOR 1, GRUPO 15","Avenida Los Ángeles S/N, Sector 1, Grupo 15, Villa El Salvador, Lima, Perú",-12.1987988,-76.9471057
134,CLINICA MIRAFLORES,lima,miraflores,CALLE J.A. ENCINAS 141 URBANIZACIÓN EL ROSEDAL,"Calle JA Encinas 141 Urbanización El Rosedal, Miraflores, Lima, Perú",-12.1273525,-77.0136222
135,HOSPITAL I ULDARICO ROCCA FERNANDEZ,lima,ves,AV.SEPARADORA INDUSTRIAL Y AV. CESAR VALLEJO,"AvenidaSeparadora Industrial Y Avenida Cesar Vallejo, Villa El Salvador, Lima, Perú",-12.210533,-76.9315525
136,"HOSPITAL""ROSALIA  DE LAVALLE DE MORALES MACEDO - SOCIEDAD DE BENEFICIENCIA DE LIMA METROPOLITANA",lima,miraflores,GERVASIO SANTILLANA Nº 260,"Gervasio Santillana Nº 260, Miraflores, Lima, Perú",-12.1043456,-77.0296402
137,CLINICA SAN MARCOS S.A.,lima,brena,JIRÓN JR HUARAZ 1425 JR HUARAZ 1425 BREÑA LIMA LIMA ,"Jirón Jiron Huaraz 1425 Jiron Huaraz 1425 Breña Lima Lima, Breña, Lima, Perú",-12.0618637,-77.0465364
138,HOSPITAL VICTOR LARCO HERRERA,lima,magdalena del mar,AV.AUGUSTO PEREZ ARANIBAR N° 600,"AvenidaAugusto Perez Aranibar N° 600, Magdalena Del Mar, Lima, Perú",-12.107513,-77.0544111
139,CLINICA ZIEGLER CIRUGIA PLASTICA,lima,san isidro,AVENIDA AV. GUARDIA CIVIL Nº 990 DISTRITO SAN ISIDRO PROVINCIA LIMA DEPARTAMENTO LIMA ,"Avenida Avenida Guardia Civil Nº 990 Distrito San Isidro Provincia Lima Departamento Lima, San Isidro, Lima, Perú",-12.1015527,-77.01433279999999
140,VILLA MARIA DEL TRIUNFO,lima,vmt,AV. PEDRO VALLE S/N (ALTURA CUADRA 18 AV.EL TRIUNFO),"Avenida Pedro Valle S/N, Villa Maria Del Triunfo, Lima, Perú",-12.1575741,-76.936013
141,MEGASALUD NARANJAL S.A.C.,lima,los olivos,AV. NARANJAL 1582 URB PARQUE NARANJAL 2DA ETAPA,"Avenida Naranjal 1582 Urb Parque Naranjal 2Da Etapa, Los Olivos, Lima, Perú",-11.9759664,-77.0847833
142,POLICLINICO CORI,lima,los olivos,"AVENIDA CARLOS ALBERTO IZAGUIRRE 978 L 13, 14, 15 LAS PALMERAS A una cuadra de la Municipalidad de Los Olivos LOS OLIVOS LIMA LIMA ","Avenida Carlos Alberto Izaguirre 978 L 13, 14, 15 Las Palmeras A Una Cuadra De La Municipalidad De Los Olivos Los Olivos Lima Lima, Los Olivos, Lima, Perú",-11.991564,-77.0707092
143,CLINICA QUINTANILLA,lima,san borja,AVENIDA AV. DE LAS ARTES SUR NÚMERO 193 DISTRITO SAN BORJA PROVINCIA LIMA DEPARTAMENTO LIMA ,"Avenida Avenida De Las Artes Sur Número 193 Distrito San Borja Provincia Lima Departamento Lima, San Borja, Lima, Perú",-12.0963837,-77.00548239999999
144,CLINICA SANTA LUCIA S.A.C.,lima,san borja,AV. GUARDIA CIVIL 301,"Avenida Guardia Civil 301, San Borja, Lima, Perú",-12.09136,-77.00841
145,TABLADA DE LURIN,lima,vmt,AV. REPUBLICA Y BILLINGURST S/N 2DO SECTOR,"Avenida Republica Y Billingurst S/N 2Do Sector, Villa Maria Del Triunfo, Lima, Perú",-12.18906,-76.92475
146,DANIEL ALCIDES CARRION,lima,vmt,AV. PACHACUTEC Nº 3470,"Avenida Pachacutec Nº 3470, Villa Maria Del Triunfo, Lima, Perú",-12.1780681,-76.9457418
147,OFTALMICA S.A.,lima,san borja,AVENIDA SAN BORJA NORTE  783  - 794 SAN BORJA LIMA LIMA ,"Avenida San Borja Norte 783, 794 San Borja Lima Lima, San Borja, Lima, Perú",-12.093545,-76.9996783
148,INSTITUTO NACIONAL CARDIOVASCULAR CARLOS ALBERTO PESCHIERA CARRILLO - INCOR,lima,jesus maria,JIRON CORONEL FÉLIX ZEGARRA Nº.S 397-417-455-465-491-495,"Jiron Coronel Félix Zegarra NºS 397, 417, 455, 465, 491, 495, Jesus Maria, Lima, Perú",-12.0765935,-77.0422769
149,CENTRO DE CATARATA Y LASER E.I.R.L.,lima,san borja,AV. SAN BORJA SUR Nº 536,"Avenida San Borja Sur Nº 536, San Borja, Lima, Perú",-12.1016033,-77.0036137
150,CASTELLARES Y ASOCIADOS S.C.R.L.,lima,ate,JIRON LOS ABETOS N° 210 URB. JAVIER PRADO,"Jiron Los Abetos N° 210 Urb Javier Prado, Ate, Lima, Perú",-12.0815094,-76.981675
151,CASTELLARES Y ASOCIADOS S.C.R.L.,lima,ate,JIRON LOS ABETOS 158 URB. JAVIER PRADO,"Jiron Los Abetos 158 Urb Javier Prado, Ate, Lima, Perú",-12.0817182,-76.9819773
152,NACIONAL ARZOBISPO LOAYZA,lima,lima,AV. ALFONSO UGARTE 848,"Avenida Alfonso Ugarte 848, Lima, Perú",-12.0503843,-77.0433584
153,SERVICIOS MEDICOS ATLANTIS SRL,lima,lurigancho,JR. PUNO 182- CHOSICA,"Jiron Puno 182, Chosica, Lurigancho, Lima, Perú",-12.0505498,-77.0333804
154,LURIN,lima,lurin,JIRÓN GRAU Nº 370 JR. GRAU Nº 370 VILLA EL SALVADOR LIMA LIMA ,"Jirón Grau Nº 370 Jiron Grau Nº 370 Villa El Salvador Lima Lima, Lurin, Lima, Perú",-12.0926415,-77.0731644
155,SAN MARTIN PLASTICA & ESTETICA,lima,santiago de surco,JIRÓN JIRON BREA Y PARIÑAS 109 URB. TAMBO DE MONTERRICO DISTRITO SANTIAGO DE SURCO PROVINCIA LIMA DEPARTAMENTO LIMA ,"Jirón Jiron Brea Y Pariñas 109 Urb Tambo De Monterrico Distrito Santiago De Surco Provincia Lima Departamento Lima, Santiago De Surco, Lima, Perú",-12.1152892,-76.99159449999999
156,SANTA ROSA,lima,puente piedra,"AA.HH. SANTA ROSA, MZ. 50, LOTE PM - AV. SANTA ROSA","AaHh Santa Rosa, Manzana 50, Lote Pm, Avenida Santa Rosa, Puente Piedra, Lima, Perú",-11.8739875,-77.0836441
157,TRAUMATOLOGIA Y ORTOPEDIA AYBAR & AS SAC,lima,jesus maria,AV. SAN FELIPE N° 142,"Avenida San Felipe N° 142, Jesus Maria, Lima, Perú",-12.0813453,-77.05799789999999
158,RIMAC,lima,rimac,PASAJE SAN GERMAN Nº 270 URB. VILLACAMPA  RIMAC,"Pasaje San German Nº 270 Urb Villacampa  Rimac, Rimac, Lima, Perú",,
159,CLINICA DEL NORTE,lima,los olivos,AVENIDA UNIVERSITARIA MZ- B LT- 12 COOP. CAJABAMBA DISTRITO LOS OLIVOS PROVINCIA LIMA DEPARTAMENTO LIMA ,"Avenida Universitaria Manzana, B Lt, 12 Coop Cajabamba Distrito Los Olivos Provincia Lima Departamento Lima, Los Olivos, Lima, Perú",-11.9900727,-77.0820218
160,ASOCIACION CIVIL NUESTRA SEÑORA DEL SAGRADO CORAZON,lima,pueblo libre,AV. PASO DE LOS ANDES Nº 923,"Avenida Paso De Los Andes Nº 923, Pueblo Libre, Lima, Perú",-12.0711283,-77.0596844
161,CLINICA LA LUZ S.A.C.,lima,lima,AVENIDA AV. AREQUIPA 1148 - URB. SANTA BEATRIZ AV. AREQUIPA 1148 - URB. SANTA BEATRIZ LIMA LIMA LIMA ,"Avenida Avenida Arequipa 1148, Urb Santa Beatriz Avenida Arequipa 1148, Urb Santa Beatriz Lima Lima Lima, Lima, Perú",-12.0762607,-77.0358918
162,CLÍNICA DELGADO,lima,miraflores,AVENIDA AV ANGAMOS OESTE N°450-490 DISTRITO MIRAFLORES PROVINCIA LIMA DEPARTAMENTO LIMA ,"Avenida Avenida Angamos Oeste N°450, 490 Distrito Miraflores Provincia Lima Departamento Lima, Miraflores, Lima, Perú",-12.113601,-77.0332293
163,INSTITUTO NACIONAL DE SALUD DEL NIÑO,lima,brena,AV. BRASIL Nº 600,"Avenida Brasil Nº 600, Breña, Lima, Perú",-12.0645734,-77.04578719999999
164,SANTA ANITA,lima,santa anita,CALLE LOS MOCHICAS S/N PARQUE LAMPA DE ORO  COOP.CHANCAS DE ANDAHUAYLAS-SANTA ANITA NÚMERO S/N DISTRITO SANTA ANITA PROVINCIA LIMA DEPARTAMENTO LIMA,"Calle Los Mochicas S/N Parque Lampa De Oro CoopChancas De Andahuaylas, Santa Anita Número S/N Distrito Santa Anita Provincia Lima Departamento Lima, Santa Anita, Lima, Perú",-12.0418305,-76.9684467
165,CLINICA SOLIDARIA LA CAMPIÑA E.I.R.L,lima,chorrillos,JIRÓN JR TOLOMEO 142 LA CAMPIÑA CHORRILLOS DISTRITO CHORRILLOS PROVINCIA LIMA DEPARTAMENTO LIMA ,"Jirón Jiron Tolomeo 142 La Campiña Chorrillos Distrito Chorrillos Provincia Lima Departamento Lima, Chorrillos, Lima, Perú",-12.1844318,-76.99937299999999
166,CLINICA MICHAUD,lima,miraflores,AV. ALFREDO BENAVIDES 2965 - URB. AURORA,"Avenida Alfredo Benavides 2965, Urb Aurora, Miraflores, Lima, Perú",-12.1281698,-77.0043948
167,ESSALUD - HOSPITAL II SUÁREZ ANGAMOS,lima,miraflores,AV. ANGAMOS ESTE Nº 261,"Avenida Angamos Este Nº 261, Miraflores, Lima, Perú",-12.1130065,-77.0276514
168,SEGURO SOCIAL DE SALUD,lima,ate,JR. SAN MARTIN DE PORTES 265,"Jiron San Martin De Portes 265, Ate, Lima, Perú",-12.0185821,-76.88535209999999
169,PERIMEDIC,lima,comas,URBANIZACIÓN CARABAYLLO II ETAPA MANZANA A LOTE 18 DISTRITO COMAS PROVINCIA LIMA DEPARTAMENTO LIMA ,"Urbanización Carabayllo Ii Etapa Manzana A Lote 18 Distrito Comas Provincia Lima Departamento Lima, Comas, Lima, Perú",-11.9700488,-77.0586051
170,ERICK JOHN RAMIREZ ARANDA,lima,pueblo libre,AV. PASO DE LOS ANDES 550,"Avenida Paso De Los Andes 550, Pueblo Libre, Lima, Perú",-12.0748315,-77.05894239999999
171,INSTITUTO MEDICO YANAYACO S.A.,lima,san borja,AV LAS ARTES NORTE 1105,"Avenida Las Artes Norte 1105, San Borja, Lima, Perú",-12.089674,-76.995295
172,VISUAL CENTER CLINICA DE OJOS,lima,san miguel,AVENIDA AV. ELMER FAUCETT NO 170 DISTRITO SAN MIGUEL PROVINCIA LIMA DEPARTAMENTO LIMA ,"Avenida Avenida Elmer Faucett No 170 Distrito San Miguel Provincia Lima Departamento Lima, San Miguel, Lima, Perú",-12.0723568,-77.0986102
173,CLINICA SERVICIOS MEDICOS INTEGRALES SAN MARCOS,lima,sjl,AV. SANTA ROSA 1719 - URB. INCA MANCO CAPAC,"Avenida Santa Rosa 1719, Urb Inca Manco Capac, San Juan De Lurigancho, Lima, Perú",-12.0020113,-76.9995756
174,ASOCIACION HIJAS DE SAN CAMILO,lima,santiago de surco,JR. EL POLO 570 MONTERRICO-SANTIAGO DE SURCO,"Jiron El Polo 570 Monterrico, Santiago De Surco, Lima, Perú",-12.1025148,-76.9721514
175,HOSPITAL SAN JUAN BAUTISTA HUARAL,huaral,huaral,CALLE CALLE TACNA Nº 120 URB. SAN JUAN I DISTRITO HUARAL PROVINCIA HUARAL DEPARTAMENTO LIMA ,"Calle Calle Tacna Nº 120 Urb San Juan I Distrito Huaral Provincia Huaral Departamento Lima, Huaral, Perú",-11.5026039,-77.21299739999999
176,CLINICA SANTA LEONOR,lima,chorrillos,AVENIDA AV. DEFENSORS DEL MORRO Nº 2697 - URB. SANTA LEONOR DISTRITO CHORRILLOS PROVINCIA LIMA DEPARTAMENTO LIMA ,"Avenida Avenida Defensors Del Morro Nº 2697, Urb Santa Leonor Distrito Chorrillos Provincia Lima Departamento Lima, Chorrillos, Lima, Perú",-12.1837114,-77.0090056
177,INSTITUTO DE GINECOLOGIA Y REPRODUCCION S.A.,lima,santiago de surco,AV. MANUEL OLGUIN 1045 - 1047,"Avenida Manuel Olguin 1045, 1047, Santiago De Surco, Lima, Perú",-12.1030131,-76.97383409999999
178,INSTITUTO KIRSCHBAUM DE CIRUGIA PLASTICA Y ESTETICA S.C.R.L.,lima,san borja,AV. JAVIER PRADO ESTE 2973,"Avenida Javier Prado Este 2973, San Borja, Lima, Perú",-12.08636,-76.9937599
179,CLINICA MONTESUR,lima,santiago de surco,AVENIDA AV. EL POLO NRO. 505 URB. EL DERBY MONTERRICO DISTRITO SANTIAGO DE SURCO PROVINCIA LIMA DEPARTAMENTO LIMA ,"Avenida Avenida El Polo Nro 505 Urb El Derby Monterrico Distrito Santiago De Surco Provincia Lima Departamento Lima, Santiago De Surco, Lima, Perú",-12.1033633,-76.97299559999999
180,HOSPITAL II GUSTAVO LANATTA LUJAN - ESSALUD,huaura,huacho,AVENIDA FRANCISCO VIDAL Nº 707,"Avenida Francisco Vidal Nº 707, Huacho, Huaura, Perú",-11.1129497,-77.608706
181,OLLANTAY,lima,sjm,AV. PROLONGACION GABRIEL TORRES S/N. PAMPLONA ALTA,"Avenida Prolongacion Gabriel Torres S/N Pamplona Alta, San Juan De Miraflores, Lima, Perú",-12.14898,-76.9739699
182,HOSPITAL II CAÑETE,canete,san vicente de canete,AV. MARISCAL BENAVIDES Nº 495,"Avenida Mariscal Benavides Nº 495, San Vicente De Cañete, Cañete, Perú",-13.0751576,-76.3801427
183,CLINICA CEDRON,lima,santiago de surco,AVENIDA AV EL POLO 438 CC MONTERRICO DISTRITO SANTIAGO DE SURCO PROVINCIA LIMA DEPARTAMENTO LIMA ,"Avenida Avenida El Polo 438 Cc Monterrico Distrito Santiago De Surco Provincia Lima Departamento Lima, Santiago De Surco, Lima, Perú",-12.104662,-76.9729184
184,OPTIMA VISION S.R.L.,lima,miraflores,AV. ANGAMOS OESTE 884,"Avenida Angamos Oeste 884, Miraflores, Lima, Perú",-12.1137996,-77.0377585
185,RAMOS LARREA,canete,imperial,OTROS URB. RAMOS LARREA MZ H LOTE 1 Y 2 DISTRITO IMPERIAL PROVINCIA CAÑETE DEPARTAMENTO LIMA ,"Otros Urb Ramos Larrea Manzana H Lote 1 Y 2 Distrito Imperial Provincia Cañete Departamento Lima, Imperial, Cañete, Perú",-13.0605258,-76.35312189999999
186,UNIDAD EJECUTORA 020: SANIDAD DE LA PNP,lima,rimac,PSJE SAN GERMAN S/N CUADRA 2 - URB VILLACAMPA,"Psje San German S/N Cuadra 2, Urb Villacampa, Rimac, Lima, Perú",-12.0705403,-77.0108783
187,CLINICA MARIA SOCIEDAD COMERCIAL DE RESPONSABILIDAD LIMITADA,lima,los olivos,JR: AQUIA 4844 URB. NARANJAL,"Jiron: Aquia 4844 Urb Naranjal, Los Olivos, Lima, Perú",-11.9814712,-77.080948
188,CENTRO MEDICO CLINICA SAN JUDAS TADEO S.A.,lima,san miguel,CALLE MANUEL RAYGADA Nº 170 (ANEXO EN CALLE LAUREANO MARTINEZ Nº 140) - URB EL CAMPILLO,"Calle Manuel Raygada Nº 170, Urb El Campillo, San Miguel, Lima, Perú",-12.080003,-77.080145
189,POLICLINICO ÑAHUI E.I.R.L.,lima,surquillo,AV. ANGAMOS ESTE Nº 714 - 1ER 2DO Y 3ER PISO,"Avenida Angamos Este Nº 714, 1Er 2Do Y 3Er Piso, Surquillo, Lima, Perú",-12.1136064,-77.0240805
190,CLINICA REAL LOS LAURELES S.A.C,lima,chorrillos,CALLE ARMANDO CAMBANA Nº279 URB. LOS LAURELES - CHORRILLOS,"Calle Armando Cambana Nº279 Urb Los Laureles, Chorrillos, Lima, Perú",-12.1744472,-77.0201249
191,MEDICAL PLASTIC E.I.R.L.,lima,magdalena del mar,AV BRASIL 3281,"Avenida Brasil 3281, Magdalena Del Mar, Lima, Perú",-12.0896085,-77.0654182
192,FUERZA AEREA DEL PERU,lima,miraflores,AV. ARAMBURU 2DA. CUADRA S/N,"Avenida Aramburu 2Da Cuadra S/N, Miraflores, Lima, Perú",-12.103244,-77.0295196
193,UNIDAD EJECUTORA 020:SANIDAD DE LA PNP,lima,san miguel,JR RAMON CASTILLA 590,"Jiron Ramon Castilla 590, San Miguel, Lima, Perú",-12.0455376,-77.1009788
194,CLINICA INTERNACIONAL S.A.,lima,lima,JR. WASHINGTON 1471,"Jiron Washington 1471, Lima, Perú",-12.0594114,-77.03882399999999
195,CLINICA DE OJOS DOPELUCE S.A.C.,lima,lince,AV AREQUIPA 1885,"Avenida Arequipa 1885, Lince, Lima, Perú",-12.0833357,-77.03434
196,MATERNO INFANTIL DR. ENRIQUE MARTIN ALTUNA,lima,puente piedra,ASOC VIV E INDUSTRIAS VIRGEN DE LAS NIEVES URB LEONCIO PRADO MZ B LT. 18A KM 35.5 PANAM. NORTE,"Asoc Viv E Industrias Virgen De Las Nieves Urb Leoncio Prado Manzana B Lt 18A Km 355 Panam Norte, Puente Piedra, Lima, Perú",-12.0316117,-77.02981919999999
197,HOSPITAL CARLOS LANFRANCO LA HOZ,lima,puente piedra,AV. SAENZ PEÑA - CUADRA 6 S/N,"Avenida Saenz Peña, Cuadra 6 S/N, Puente Piedra, Lima, Perú",-11.8629099,-77.0798273
198,CLINICA ESPECIALIZADA EN CIRUGÍA PLÁSTICA SAN AGUSTIN,lima,pueblo libre,"AVENIDA BRASIL 2630, INTERIOR ""A"" Y LA AV BRASIL 2610, INTERIOR 101 DISTRITO PUEBLO LIBRE PROVINCIA LIMA DEPARTAMENTO LIMA ","Avenida Brasil 2630, Interior ""A"" Y La Avenida Brasil 2610, Interior 101 Distrito Pueblo Libre Provincia Lima Departamento Lima, Pueblo Libre, Lima, Perú",-12.0835739,-77.0611115
199,"INSTITUTO NACIONAL DE REHABILITACION ""DRA. ADRIANA REBAZA FLORES"" AMISTAD PERU - JAPON",lima,chorrillos,AVENIDA AV. DEFENSORES DEL MORRO N° 213 - 215 DISTRITO CHORRILLOS PROVINCIA LIMA DEPARTAMENTO LIMA ,"Avenida Avenida Defensores Del Morro N° 213, 215 Distrito Chorrillos Provincia Lima Departamento Lima, Chorrillos, Lima, Perú",-12.1667714,-77.02613889999999
200,SAN FERNANDO,lima,ate,JIRÓNJOSE SANTOS CHOCANO CDRA.01 S/N - URB.VALDIVIEZO NÚMERO S/N DISTRITO ATE PROVINCIA LIMA DEPARTAMENTO LIMA,"Jirónjose Santos Chocano Cuadra01 S/N, UrbValdiviezo Número S/N Distrito Ate Provincia Lima Departamento Lima, Ate, Lima, Perú",-12.0184233,-76.8824782
201,HOSPITAL NACIONAL HIPOLITO UNANUE,lima,el agustino,AVENIDA CÉSAR VALLEJO 1390 - EL AGUSTINO AV. CÉSAR VALLEJO 1390 - EL AGUSTINO EL AGUSTINO LIMA LIMA ,"Avenida César Vallejo 1390, El Agustino Avenida César Vallejo 1390, El Agustino El Agustino Lima Lima, El Agustino, Lima, Perú",-12.03992,-76.99249999999999
202,NACIONAL DE OFTALMOLOGIA,lima,lima,AVENIDA AV. TINGO MARÍA Nº 398 DISTRITO LIMA PROVINCIA LIMA DEPARTAMENTO LIMA ,"Avenida Avenida Tingo María Nº 398 Distrito Lima Provincia Lima Departamento Lima, Lima, Perú",-12.0512579,-77.0557194
203,MIGUEL GRAU,lima,chaclacayo,CARRETERA CARRETERA CENTRAL KILOMETRO 19.5 - COOP.VIV. MIGUEL GRAU DISTRITO CHACLACAYO PROVINCIA LIMA DEPARTAMENTO LIMA ,"Carretera Carretera Central Kilometro 195, CoopViv Miguel Grau Distrito Chaclacayo Provincia Lima Departamento Lima, Chaclacayo, Lima, Perú",-11.9795888,-76.787016
204,HOSPITAL GENERAL DE HUACHO,huaura,huacho,AVENIDA JOSE ARAMBULO LA ROSA Nº 221-251-271,"Avenida Jose Arambulo La Rosa Nº 221, 251, 271, Huacho, Huaura, Perú",-11.1158556,-77.6074757
205,HOSPITAL REZOLA,canete,san vicente de canete,CALLE SAN MARTIN Nº 120 -124  SAN VICENTE,"Calle San Martin Nº 120, 124 San Vicente, San Vicente De Cañete, Cañete, Perú",-13.0777593,-76.3883481
206,REJUVENECIMIENTO Y ESTETICA CABANI SRL,lima,san borja,AV GUARDIA CIVIL 627,"Avenida Guardia Civil 627, San Borja, Lima, Perú",-12.0960577,-77.01069989999999
207,HOSPITAL HERMILIO VALDIZAN,lima,santa anita,CARRETERA CARRETERA CENTRAL KM 3.5 SANTA ANITA DISTRITO SANTA ANITA PROVINCIA LIMA DEPARTAMENTO LIMA ,"Carretera Carretera Central Km 35 Santa Anita Distrito Santa Anita Provincia Lima Departamento Lima, Santa Anita, Lima, Perú",-12.0504369,-76.9546735
208,POLICLINICO SAN VICENTE - CAÑETE E.I.R.L.,canete,san vicente de canete,AVENIDA MARISCAL BENAVIDES N°138. SAN VICENTE. CAÑETE,"Avenida Mariscal Benavides N°138 San Vicente Cañete, San Vicente De Cañete, Cañete, Perú",-13.0763781,-76.38379239999999
209,HUMANA INSTITUTO DE SALUD PARA LA MUJER SRL,lima,la molina,AV. FLORA TRISTAN 2002 - CALLE FERNANDO BONILLA 115 - URB. SANTA PATRICIA,"Avenida Flora Tristan 2002, Calle Fernando Bonilla 115, Urb Santa Patricia, La Molina, Lima, Perú",-12.0728559,-76.9407647
210,CASA DE REPOSO SEÑOR DE NAZARENO,lima,san borja,AV. LAS ARTES NORTES 1249  -  1247,"Avenida Las Artes Nortes 1249, 1247, San Borja, Lima, Perú",-12.0892295,-76.99239879999999
211,OMNIA VISION S.A.,lima,santiago de surco,AV. INTUHUATANA Nº 495 - URB. TAMBO DE MONTERRICO - SANTIAGO DE SURCO.,"Avenida Intuhuatana Nº 495, Urb Tambo De Monterrico, Santiago De Surco, Lima, Perú",-12.1153036,-76.9951549
212,MANUEL BARRETO,lima,sjm,JR. MANUEL BARRETO S/N ZONA K-CIUDAD DE DIOS,"Jiron Manuel Barreto S/N Zona K, Ciudad De Dios, San Juan De Miraflores, Lima, Perú",-12.1538962,-76.96830330000002
213,JOSE GALVEZ,lima,vmt,CRUCE CALLE ARICA CON AGRICULTURA S/N,"Cruce Calle Arica Con Agricultura S/N, Villa Maria Del Triunfo, Lima, Perú",-12.210089,-76.9071711
214,HOSPITAL I OCTAVIO MONGRUT MUÑOZ,lima,san miguel,AV PARQUE DE LAS LEYENDAS 255,"Avenida Parque De Las Leyendas 255, San Miguel, Lima, Perú",-12.0658784,-77.09449819999999
215,HOSPITAL DE MEDIANA COMPLEJIDAD JOSE AGURTO TELLO,lima,lurigancho,JR. AREQUIPA 214-218,"Jiron Arequipa 214, 218, Lurigancho, Lima, Perú",-11.9562044,-77.0516197
216,ENFERMERIA DE CADETES DE LA ESCUELA MILITAR DE CHORRILLOS,lima,chorrillos,AVENIDA ESCUELA MILITAR S/N CHORRILLOS S/N AVENIDA ESCUELA MILITAR S/N CHORRILLOS SAN BORJA LIMA LIMA ,"Avenida Escuela Militar S/N Chorrillos S/N Avenida Escuela Militar S/N Chorrillos San Borja Lima Lima, Chorrillos, Lima, Perú",-12.1609201,-77.0191991
217,HOSPITAL SAN JUAN DE LURIGANCHO,lima,sjl,ENTRE PARADERO 10 Y 11 DE AV. CANTO GRANDE (HUASCAR),"Entre Paradero 10 Y 11 De Avenida Canto Grande, San Juan De Lurigancho, Lima, Perú",-11.9615255,-77.0002504
218,FUNDACION PARA EL TRATAMIENTO DE GLAUCOMA Y CATARATA SOCIEDAD ANONIMA CERRADA,lima,jesus maria,JIRON CARACAS 2410,"Jiron Caracas 2410, Jesus Maria, Lima, Perú",-12.0854421,-77.0568322
219,HOSPITAL DE SUPE LAURA ESTHER RODRIGUEZ DULANTO,barranca,supe,JIRÓN  ALFONSO UGARTE Nº 350 DISTRITO SUPE PROVINCIA BARRANCA DEPARTAMENTO LIMA,"Jirón Alfonso Ugarte Nº 350 Distrito Supe Provincia Barranca Departamento Lima, Supe, Barranca, Perú",-10.7517691,-77.7584124
220,INSTITUTO NACIONAL DE ENFERMEDADES NEOPLASICAS,lima,surquillo,"AV. ANGAMOS ESTE 2520, URB. CALERA DE LA MERCED","Avenida Angamos Este 2520, Urb Calera De La Merced, Surquillo, Lima, Perú",-12.1119908,-77.00169029999999
221,CLÍNICA MÉDICA CAYETANO HEREDIA,lima,smp,AVENIDA HONORIO DELGADO 370 INGENIERIA SMP AV. HONORIO DELGADO 370 INGENIERIA SMP SAN MARTIN DE PORRES LIMA LIMA ,"Avenida Honorio Delgado 370 Ingenieria Smp Avenida Honorio Delgado 370 Ingenieria Smp San Martin De Porres Lima Lima, San Martin De Porres, Lima, Perú",-12.0235377,-77.0560922
222,CLOH S.A.C.,lima,miraflores,AV. PASEO DE LA CASTELLANA Nº 102 - 110,"Avenida Paseo De La Castellana Nº 102, 110, Miraflores, Lima, Perú",-12.1292553,-77.00163979999999
223,HOSPITAL NACIONAL EDGARDO REBAGLIATI MARTINS,lima,jesus maria,JIRON EDGARDO REBAGLIATI Nº490,"Jiron Edgardo Rebagliati Nº490, Jesus Maria, Lima, Perú",-12.0781132,-77.0403748
224,HOSPITAL NACIONAL GUILLERMO ALMENARA IRIGOYEN,lima,la victoria,AV. GRAU Nº 800,"Avenida Grau Nº 800, La Victoria, Lima, Perú",-12.058728,-77.0224793
225,INVERCONSULT S.A.,lima,san miguel,CALLE CARLOS GONZALES 250 URB. MARANGA,"Calle Carlos Gonzales 250 Urb Maranga, San Miguel, Lima, Perú",-12.0749986,-77.0916757
226,CLINICA SAN MARTIN,lima,sjl,AV. PROCERES DE LA INDEPENDENCIA 576,"Avenida Proceres De La Independencia 576, San Juan De Lurigancho, Lima, Perú",-12.0224038,-77.0065068
227,INVERSIONES MEDICAS GALENO S.A.C.,huaura,huacho,AVENIDA AVENIDA ECHENIQUE Nº 641 - HUACHO AVENIDA ECHENIQUE Nº 641 - HUACHO HUACHO HUAURA LIMA ,"Avenida Avenida Echenique Nº 641, Huacho Avenida Echenique Nº 641, Huacho Huacho Huaura Lima, Huacho, Huaura, Perú",-11.1116174,-77.6097336
228,INVERSIONES GENERALES SALOMON S.A.,lima,surquillo,CALLE VALDEMAR MOSER 501 - URB LA AURORA,"Calle Valdemar Moser 501, Urb La Aurora, Surquillo, Lima, Perú",-12.1168424,-77.00690469999999
229,CESAR LOPEZ SILVA,lima,ves,SECTOR IV MZ B1 LT S/N 1RA. ETAPA URB.PACHACAMAC S/N SECTOR IV MZ B1 LT S/N 1RA. ETAPA URB.PACHACAMAC VILLA EL SALVADOR LIMA LIMA ,"Sector Iv Manzana B1 Lt S/N 1Ra Etapa UrbPachacamac S/N Sector Iv Manzana B1 Lt S/N 1Ra Etapa UrbPachacamac Villa El Salvador Lima Lima, Villa El Salvador, Lima, Perú",-12.2318002,-76.9242795
230,HOSPITAL VITARTE,lima,ate,AVENIDA NICOLAS AYLLON 5880-CARRETERA CENTRAL DISTRITO ATE PROVINCIA LIMA DEPARTAMENTO LIMA ,"Avenida Nicolas Ayllon 5880, Carretera Central Distrito Ate Provincia Lima Departamento Lima, Ate, Lima, Perú",-11.9845473,-76.80689269999999
231,CLINICA CHORRILLOS,lima,chorrillos,AVENIDA AV. DEFENSORES DEL MORRO N°1201 DISTRITO CHORRILLOS PROVINCIA LIMA DEPARTAMENTO LIMA ,"Avenida Avenida Defensores Del Morro N°1201 Distrito Chorrillos Provincia Lima Departamento Lima, Chorrillos, Lima, Perú",-12.1743262,-77.0185049
232,TAMBO VIEJO,lima,cieneguilla,AVENIDA AV. MANCO CAPAC S/N - ZONA A - TAMBO VIEJO-CIENEGUILLA S/N AV. MANCO CAPAC S/N - ZONA A - TAMBO VIEJO-CIENEGUILLA CIENEGUILLA LIMA LIMA ,"Avenida Avenida Manco Capac S/N, Zona A, Tambo Viejo, Cieneguilla S/N Avenida Manco Capac S/N, Cieneguilla Cieneguilla Lima Lima, Cieneguilla, Lima, Perú",-12.1111027,-76.818489
233,HOSPITAL NACIONAL POLICIA NACIONAL DEL PERU GRAL PNP LUIS N. SAENZ.,lima,jesus maria,AVENIDA BRASIL CUADRA 26 S/N S/N AVENIDA BRASIL CUADRA 26 S/N MIRAFLORES LIMA LIMA ,"Avenida Brasil Cuadra 26 S/N S/N Avenida Brasil Cuadra 26 S/N Miraflores Lima Lima, Jesus Maria, Lima, Perú",-12.0761339,-77.0545015
234,CLINICA INTERNACIONAL S.A.,lima,san borja,AVENIDA GUARDIA CIVIL Nº 385 AV. GUARDIA CIVIL Nº 385 SAN BORJA LIMA LIMA ,"Avenida Guardia Civil Nº 385 Avenida Guardia Civil Nº 385 San Borja Lima Lima, San Borja, Lima, Perú",-12.0976533,-77.0118129
235,HOSPITAL DE EMERGENCIAS PEDIATRICAS,lima,la victoria,AVENIDA AV GRAU 854 - PROLONG JR HUAMANGA 147 DISTRITO LA VICTORIA PROVINCIA LIMA DEPARTAMENTO LIMA ,"Avenida Avenida Grau 854, Prolong Jiron Huamanga 147 Distrito La Victoria Provincia Lima Departamento Lima, La Victoria, Lima, Perú",-12.0583643,-77.021587
236,CENTRO MATERNO INFANTIL SANTA LUZMILA II,lima,comas,AVENIDA AV. 22 DE AGOSTO N° 1001- URB SANTA LUZMILA II ETAPA DISTRITO COMAS PROVINCIA LIMA DEPARTAMENTO LIMA ,"Avenida Avenida 22 De Agosto N° 1001, Urb Santa Luzmila Ii Etapa Distrito Comas Provincia Lima Departamento Lima, Comas, Lima, Perú",-11.9470552,-77.058989
237,OFTALMO VISSUM SOCIEDAD ANONIMA CERRADA,lima,santiago de surco,AVENIDA ALFREDO BENAVIDES NÚMERO 4408 PISO 1 MANZANA G3 LOTE 2 URBANIZACIÓN VISTA ALEGRE DISTRITO SANTIAGO DE SURCO PROVINCIA LIMA DEPARTAMENTO LIMA ,"Avenida Alfredo Benavides Número 4408 Piso 1 Manzana G3 Lote 2 Urbanización Vista Alegre Distrito Santiago De Surco Provincia Lima Departamento Lima, Santiago De Surco, Lima, Perú",-12.1282723,-76.99105039999999
238,CENTRO MEDICO MATERNO INFANTIL SANCHEZ,lima,sjl,AVENIDA AV. LOS AMELOS 1725 - URB. SAN HILARION DISTRITO SAN JUAN DE LURIGANCHO PROVINCIA LIMA DEPARTAMENTO LIMA ,"Avenida Avenida Los Amelos 1725, Urb San Hilarion Distrito San Juan De Lurigancho Provincia Lima Departamento Lima, San Juan De Lurigancho, Lima, Perú",-11.9952066,-77.01442660000001
239,HOSPITAL CHANCAY Y SERVICIOS BASICOS DE SALUD,huaral,chancay,JIRÓN JR. . SUCRE S/N NÚMERO S/N DISTRITO CHANCAY PROVINCIA HUARAL DEPARTAMENTO LIMA ,"Jirón Jiron  Sucre S/N Número S/N Distrito Chancay Provincia Huaral Departamento Lima, Chancay, Huaral, Perú",-11.5666572,-77.2685791
240,HOSPITAL NACIONAL CAYETANO HEREDIA,lima,smp,AVENIDA AV. HONORIO DELGADO 262 URB. INGENIERIA AV. HONORIO DELGADO 262 URB. INGENIERIA SAN MARTIN DE PORRES LIMA LIMA ,"Avenida Avenida Honorio Delgado 262 Urb Ingenieria Avenida Honorio Delgado 262 Urb Ingenieria San Martin De Porres Lima Lima, San Martin De Porres, Lima, Perú",-12.0214115,-77.0548161
241,CLINICA LOS ANDES SAC,lima,miraflores,CALLE CALLE ASUNCION Nº 177 DISTRITO MIRAFLORES PROVINCIA LIMA DEPARTAMENTO LIMA ,"Calle Calle Asuncion Nº 177 Distrito Miraflores Provincia Lima Departamento Lima, Miraflores, Lima, Perú",-12.1048524,-77.0321134
242,CENTRO MATERNO INFANTIL LAURA RODRIGUEZ,lima,comas,CALLE CALLE 30 N° 150 (ANTES MZ R1 LOTE 2- PARCELA A) URB. EL PINAR DISTRITO COMAS PROVINCIA LIMA DEPARTAMENTO LIMA ,"Calle Calle 30 N° 150 Urb El Pinar Distrito Comas Provincia Lima Departamento Lima, Comas, Lima, Perú",-11.9159302,-77.0555911
243,INSTITUTO NACIONAL DE SALUD NIÑO SAN BORJA,lima,san borja,AVENIDA AV LA ROSA TORO 1250 URB JACARANDA II DISTRITO SAN BORJA PROVINCIA LIMA DEPARTAMENTO LIMA ,"Avenida Avenida La Rosa Toro 1250 Urb Jacaranda Ii Distrito San Borja Provincia Lima Departamento Lima, San Borja, Lima, Perú",-12.0743782,-76.99334730000001
244,CLINICA SANTA BEATRIZ,lima,jesus maria,JIRÓN JR. RAMON DAGNINO Nº 227 JR. RAMON DAGNINO Nº 227 JESUS MARIA LIMA LIMA ,"Jirón Jiron Ramon Dagnino Nº 227 Jiron Ramon Dagnino Nº 227 Jesus Maria Lima Lima, Jesus Maria, Lima, Perú",-12.0714932,-77.0375642
245,CLINICA SAN VICENTE S.A.,lima,smp,AVENIDA AV PERÚ 3220 AV PERÚ 3220 SAN MARTIN DE PORRES LIMA LIMA ,"Avenida Avenida Perú 3220 Avenida Perú 3220 San Martin De Porres Lima Lima, San Martin De Porres, Lima",-12.0311648,-77.08157940000001
246,HOSPITAL SAN JUAN DE MATUCANA,huarochiri,matucana,AVENIDA AV FLORIDA S/N -COSTADO DE LA UGEL NÚMERO S/N DISTRITO MATUCANA PROVINCIA HUAROCHIRI DEPARTAMENTO LIMA ,"Avenida Avenida Florida S/N, Costado De La Ugel Número S/N Distrito Matucana Provincia Huarochiri Departamento Lima, Matucana, Huarochiri, Perú",-11.8407317,-76.37964529999999
247,HOSPITAL DE EMERGENCIAS JOSE CASIMIRO ULLOA,lima,miraflores,AVENIDA AV. ROOSVELT N° 6355 (EX AV. REPUBLICA DE PANAMA) AV. ROOSVELT N° 6355 (EX AV. REPUBLICA DE PANAMA) MIRAFLORES LIMA LIMA ,"Avenida Avenida Roosvelt N° 6355 Avenida Roosvelt N° 6355 Miraflores Lima Lima, Miraflores, Lima, Perú",-12.1287621,-77.0178966
248,CLINICA GOOD HOPE,lima,miraflores,"AVENIDA AV. MALECON BALTA N° 956, 934, 944 Y AV. GRAU N° 755 DISTRITO MIRAFLORES PROVINCIA LIMA DEPARTAMENTO LIMA ","Avenida Avenida Malecon Balta N° 956, 934, 944 Y Avenida Grau N° 755 Distrito Miraflores Provincia Lima Departamento Lima, Miraflores, Lima, Perú",-12.1256637,-77.0345213
249,CLINICA JESUS DEL NORTE,lima,independencia,AVENIDA AVENIDA CARLOS IZAGUIRRE 153 DISTRITO INDEPENDENCIA PROVINCIA LIMA DEPARTAMENTO LIMA ,"Avenida Avenida Carlos Izaguirre 153 Distrito Independencia Provincia Lima Departamento Lima, Independencia, Lima, Perú",-11.9899976,-77.0628581
250,HOSPITAL DE APOYO SANTA ROSA,lima,pueblo libre,AV. BOLIVAR S/N CUADRA 8,"Avenida Bolivar S/N Cuadra 8, Pueblo Libre, Lima, Perú",-12.0724072,-77.0658263
251,RICARDO PALMA,huarochiri,ricardo palma,AVENIDA AV. ALAMEDA GRAU Nº 103 DISTRITO RICARDO PALMA PROVINCIA HUAROCHIRI DEPARTAMENTO LIMA ,"Avenida Avenida Alameda Grau Nº 103 Distrito Ricardo Palma Provincia Huarochiri Departamento Lima, Ricardo Palma, Huarochiri, Perú",-11.9239743,-76.66004149999999
252,CLINICA SAN PABLO,lima,santiago de surco,CALLE CALLE LA CONQUISTA 145-URB. EL DERBY DE MONTERRICO DISTRITO SANTIAGO DE SURCO PROVINCIA LIMA DEPARTAMENTO LIMA ,"Calle Calle La Conquista 145, Urb El Derby De Monterrico Distrito Santiago De Surco Provincia Lima Departamento Lima, Santiago De Surco, Lima, Perú",-12.0991505,-76.9712145
253,CENTRO MEDICO ESPECIALIZADO VIRGEN DE LAS MERCEDES E.I.R.L,lima,vmt,"OTROS COMITE 22-C, MZA ""A"", LOTE 01, URB.NUEVA ESPERANZA VMT. COMITE 22-C, MZA ""A"", LOTE 01, URB.NUEVA ESPERANZA VMT. VILLA MARIA DEL TRIUNFO LIMA LIMA ","Otros Comite 22, C, Mza ""A"", Lote 01, UrbNueva Esperanza Vmt Comite 22, UrbNueva Esperanza Vmt Villa Maria Del Triunfo Lima Lima, Villa Maria Del Triunfo, Lima, Perú",-12.1777436,-76.9314168
254,TG LASER OFTALMICA S.A.,lima,san isidro,AVENIDA Dos de Mayo N° 646-666 DISTRITO SAN ISIDRO PROVINCIA LIMA DEPARTAMENTO LIMA ,"Avenida Dos De Mayo N° 646, 666 Distrito San Isidro Provincia Lima Departamento Lima, San Isidro, Lima, Perú",-12.0911125,-77.0383511
255,HOSPITAL DE EMERGENCIAS VILLA EL SALVADOR,lima,ves,AVENIDA PASTOR SEVILLA NÚMERO 000 DISTRITO VILLA EL SALVADOR PROVINCIA LIMA DEPARTAMENTO LIMA ,"Avenida Pastor Sevilla Número 000 Distrito Villa El Salvador Provincia Lima Departamento Lima, Villa El Salvador, Lima, Perú",-12.2402221,-76.927717
256,HOSPITAL NACIONAL DOCENTE MADRE NIÑO SAN BARTOLOME,lima,lima,AVENIDA AV ALFONSO UGARTE Nº 825 LIMA CERCADO AV ALFONSO UGARTE Nº 825 LIMA CERCADO LIMA LIMA LIMA ,"Avenida Avenida Alfonso Ugarte Nº 825 Lima Cercado Avenida Alfonso Ugarte Nº 825 Lima Cercado Lima Lima Lima, Lima, Perú",-12.0497615,-77.0420353
257,NIUVIDA,lima,lince,CALLE Francisco Masias NÚMERO 2832 DISTRITO LINCE PROVINCIA LIMA DEPARTAMENTO LIMA ,"Calle Francisco Masias Número 2832 Distrito Lince Provincia Lima Departamento Lima, Lince, Lima, Perú",-12.0906445,-77.0261531
258,OFTALMOSALUD,lima,los olivos,AVENIDA CARLOS ALBERTO IZAGUIRRE 1250 K 11-20 ANGELICA GAMARRA LEON VELARDE I ETAPA LOS OLIVOS LIMA LIMA ,"Avenida Carlos Alberto Izaguirre 1250 K 11, 20 Angelica Gamarra Leon Velarde I Etapa Los Olivos Lima Lima, Los Olivos, Lima, Perú",-11.9912187,-77.07723349999999
259,CLINICA SAN GABRIEL S.A.C.,lima,san miguel,AVENIDA AV. LA MARINA 2945-2949-2955-2965 MARANGA- SAN MIGUEL DISTRITO SAN MIGUEL PROVINCIA LIMA DEPARTAMENTO LIMA ,"Avenida Avenida La Marina 2945, 2949, 2955, 2965 Maranga, San Miguel Distrito San Miguel Provincia Lima Departamento Lima, San Miguel, Lima, Perú",-12.0767482,-77.09537510000001
260,CENTRO DE SALUD FAP LAS PALMAS,lima,santiago de surco,AVENIDA AV. JORGE CHAVEZ S/N BASE AEREA LAS PALMAS NÚMERO S/N DISTRITO SANTIAGO DE SURCO PROVINCIA LIMA DEPARTAMENTO LIMA ,"Avenida Avenida Jorge Chavez S/N Base Aerea Las Palmas Número S/N Distrito Santiago De Surco Provincia Lima Departamento Lima, Santiago De Surco, Lima, Perú",-12.1582362,-77.0003067
261,HOGAR CLINICA SAN JUAN DE DIOS,lima,san luis,AVENIDA NICOLÁS ARRIOLA 3250 AV. NICOLÁS ARRIOLA 3250 SAN LUIS LIMA LIMA ,"Avenida Nicolás Arriola 3250 Avenida Nicolás Arriola 3250 San Luis Lima Lima, San Luis, Lima, Perú",-12.06559,-76.9895889
262,CLINICA SANTA JULIA  S.A.C.,lima,la molina,AVENIDA AVENIDA JAVIER PRADO ESTE N° 7118 URB. COVIMA DISTRITO LA MOLINA PROVINCIA LIMA DEPARTAMENTO LIMA ,"Avenida Avenida Javier Prado Este N° 7118 Urb Covima Distrito La Molina Provincia Lima Departamento Lima, La Molina, Lima, Perú",-12.06584,-76.9413538
263,EL PROGRESO,lima,carabayllo,AVENIDA AV. TUPAC AMARU Nº 2950 (KM 22) DISTRITO CARABAYLLO PROVINCIA LIMA DEPARTAMENTO LIMA ,"Avenida Avenida Tupac Amaru Nº 2950 Distrito Carabayllo Provincia Lima Departamento Lima, Carabayllo, Lima, Perú",-11.8783013,-77.01817799999999
264,CLINICA DE OJOS VISUAL OPHTHALMICS,lima,pueblo libre,AVENIDA AV GENERAL JOSE MARIA EGUSQUIZA NÚMERO 835 DISTRITO PUEBLO LIBRE PROVINCIA LIMA DEPARTAMENTO LIMA ,"Avenida Avenida General Jose Maria Egusquiza Número 835 Distrito Pueblo Libre Provincia Lima Departamento Lima, Pueblo Libre, Lima, Perú",-12.0742639,-77.06232709999999
265,EJERCITO PERUANO,lima,chorrillos,AVENIDA AV. ESCUELA MILITAR S/N S/N AV. ESCUELA MILITAR S/N CHORRILLOS LIMA LIMA ,"Avenida Avenida Escuela Militar S/N S/N Avenida Escuela Militar S/N Chorrillos Lima Lima, Chorrillos, Lima, Perú",-12.1609201,-77.0191991
266,CLINIC NOVASALUD,lima,ves,"PASAJE SECTOR 2, GRUPO RESIDENCIAL 10 MANZANA I LOTE 2 DISTRITO VILLA EL SALVADOR PROVINCIA LIMA DEPARTAMENTO LIMA ","Pasaje Sector 2, Grupo Residencial 10 Manzana I Lote 2 Distrito Villa El Salvador Provincia Lima Departamento Lima, Villa El Salvador, Lima, Perú",-12.2160493,-76.9416789
267,CLINICA INTERNACIONAL S.A.,lima,miraflores,JIRÓN JIRON INDEPENDENCIA Nº 1055 JIRON INDEPENDENCIA Nº 1055 MIRAFLORES LIMA LIMA ,"Jirón Jiron Independencia Nº 1055 Jiron Independencia Nº 1055 Miraflores Lima Lima, Miraflores, Lima, Perú",-12.109552,-77.0350934
268,PROVISION 2000 SAC,lima,san isidro,AV. JOSE GALVEZ BARRENECHEA Nº 356  URB. CORPAC,"Avenida Jose Galvez Barrenechea Nº 356 Urb Corpac, San Isidro, Lima, Perú",-12.095037,-77.01338799999999
269,CENTRAL COOPERATIVA DE SERVICIOS SERVIPERU LTDA.,lima,jesus maria,JR.MAXIMO ABRIL 552,"JironMaximo Abril 552, Jesus Maria, Lima, Perú",-12.0812178,-77.0572629
